city,"city, short",Lat,Long,"Top searched Olympic sport, 8-16 August, 2016"
"Lowestoft, England",Lowestoft,52.481138,1.753449,Diving
"Yarmouth, England",Yarmouth,52.598233,1.728047,Diving
"Great Yarmouth, England",Great Yarmouth,52.598233,1.728047,Diving
"Hopton, England",Hopton,52.539059,1.72587,Diving
"Caister-on-Sea, England",Caister-on-Sea,52.6486469,1.724422,Diving
"Kessingland, England",Kessingland,52.420022,1.712617,Diving
"Winterton-on-Sea, England",Winterton-on-Sea,52.7152109,1.693547,Diving
"Ormesby Saint Margaret, England",Ormesby Saint Margaret,52.676419,1.688281,Diving
"Hemsby, England",Hemsby,52.695889,1.684487,Diving
"Reydon, England",Reydon,52.34322,1.663476,Diving
"Burgh Castle, England",Burgh Castle,52.586307,1.659656,Equestrian
"Martham, England",Martham,52.705387,1.628141,Equestrian
"Worlingham, England",Worlingham,52.451999,1.596566,Equestrian
"Leiston, England",Leiston,52.209044,1.57408,Diving
"Potter Heigham, England",Potter Heigham,52.7228319,1.573341,Diving
"Reedham, England",Reedham,52.560618,1.566159,Equestrian
"Beccles, England",Beccles,52.459333,1.566053,Diving
"Acle, England",Acle,52.638278,1.550643,Diving
"Stalham, England",Stalham,52.774035,1.515419,Equestrian
"Halesworth, England",Halesworth,52.343264,1.502642,Diving
"Lingwood, England",Lingwood,52.625179,1.491635,Rowing
"Saxmundham, England",Saxmundham,52.215855,1.488056,Diving
"Loddon, England",Loddon,52.532432,1.483164,Equestrian
"Horning, England",Horning,52.704514,1.464315,Equestrian
"Blofield, England",Blofield,52.6331599,1.447312,Diving
"Bungay, England",Bungay,52.455457,1.443976,Equestrian
"Brundall, England",Brundall,52.624025,1.436542,Rowing
"Mundesley, England",Mundesley,52.875412,1.433174,Equestrian
"Broadstairs, England",Broadstairs,51.360163,1.432038,Diving
"Ramsgate, England",Ramsgate,51.335545,1.419895,Diving
"Rendlesham, England",Rendlesham,52.125279,1.412014,Diving
"Hoveton, England",Hoveton,52.714772,1.4119679,Equestrian
"Wroxham, England",Wroxham,52.704308,1.4073119,Diving
"Deal, England",Deal,51.222491,1.401661,Diving
"Kingsdown, England",Kingsdown,51.185718,1.400363,Diving
"Walmer, England",Walmer,51.2047669,1.393192,Diving
"Margate, England",Margate,51.389646,1.3868339,Diving
"North Walsham, England",North Walsham,52.822699,1.3859729,Diving
"Rackheath, England",Rackheath,52.679461,1.370984,Diving
"Felixstowe, England",Felixstowe,51.961726,1.351255,Diving
"Poringland, England",Poringland,52.56683,1.348605,Rowing
"Framlingham, England",Framlingham,52.222147,1.342105,Equestrian
"Overstrand, England",Overstrand,52.9165981,1.3415152,Diving
"Sandwich, England",Sandwich,51.274017,1.337427,Diving
"Melton, England",Melton,52.104856,1.330878,Equestrian
"Spixworth, England",Spixworth,52.686888,1.324039,Diving
"Trimley Saint Mary, England",Trimley Saint Mary,51.9785619,1.321528,Diving
"Fressingfield, England",Fressingfield,52.348099,1.318336,Equestrian
"Minster, England",Minster,51.336651,1.314436,Equestrian
"Dover, England",Dover,51.1278758,1.3134027,Diving
"Trimley Saint Martin, England",Trimley Saint Martin,51.990256,1.309577,Diving
"Eastry, England",Eastry,51.245154,1.303401,Equestrian
"Cromer, England",Cromer,52.931448,1.301866,Diving
"Harleston, England",Harleston,52.402852,1.298286,Diving
"Norwich, England",Norwich,52.6308859,1.297355,Diving
"Stoke Holy Cross, England",Stoke Holy Cross,52.566486,1.296844,Diving
"Whitfield, England",Whitfield,51.156523,1.288883,Equestrian
"Martlesham, England",Martlesham,52.073269,1.280565,Equestrian
"Stradbroke, England",Stradbroke,52.318362,1.273321,Diving
"Walton on the Naze, England",Walton on the Naze,51.848186,1.267736,Diving
"Aylsham, England",Aylsham,52.796672,1.252352,Diving
"Grundisburgh, England",Grundisburgh,52.1122129,1.246724,Diving
"Horsford, England",Horsford,52.6963099,1.245634,Diving
"West Runton, England",West Runton,52.9384749,1.244207,Diving
"Cringleford, England",Cringleford,52.601083,1.241884,Diving
"Long Stratton, England",Long Stratton,52.487476,1.237279,Diving
"Mulbarton, England",Mulbarton,52.564165,1.233985,Diving
"Kesgrave, England",Kesgrave,52.062567,1.233907,Diving
"Drayton, England",Drayton,52.674688,1.225551,Rowing
"Kirby Cross, England",Kirby Cross,51.8427999,1.214415,Diving
"Sheringham, England",Sheringham,52.944421,1.2109589,Diving
"Costessey, England",Costessey,52.656926,1.2097659,Equestrian
"Aylesham, England",Aylesham,51.2251035,1.2008551,Diving
"Taverham, England",Taverham,52.678335,1.194086,Diving
"Holland-on-Sea, England",Holland-on-Sea,51.806132,1.189651,Diving
"Dickleburgh, England",Dickleburgh,52.397754,1.185445,Equestrian
"Debenham, England",Debenham,52.227101,1.1805239,Diving
"Hethersett, England",Hethersett,52.604307,1.175232,Diving
"Folkestone, England",Folkestone,51.081397,1.169456,Diving
"Littlebourne, England",Littlebourne,51.2774659,1.166108,Rowing
"Hersden, England",Hersden,51.314939,1.165705,Diving
"Hawkinge, England",Hawkinge,51.116592,1.16374,Diving
"Thorpe-le-Soken, England",Thorpe-le-Soken,51.857095,1.161803,Diving
"Ipswich, England",Ipswich,52.056736,1.14822,Diving
"Eye, England",Eye,52.319605,1.146209,Equestrian
"Little Clacton, England",Little Clacton,51.825438,1.1411119,Equestrian
"Herne Bay, England",Herne Bay,51.370922,1.127771,Diving
"Bridge, England",Bridge,51.247098,1.1231199,Equestrian
"Sturry, England",Sturry,51.303576,1.121071,Diving
"Wymondham, England",Wymondham,52.569354,1.115305,Diving
"Claydon, England",Claydon,52.105251,1.1125529,Diving
"Reepham, England",Reepham,52.762459,1.1107419,Diving
"Diss, England",Diss,52.376491,1.108394,Equestrian
"Bramford, England",Bramford,52.077385,1.095372,Diving
"Great Blakenham, England",Great Blakenham,52.112998,1.0928389,Diving
"Lyminge, England",Lyminge,51.128996,1.089688,Equestrian
"Holt, England",Holt,52.909359,1.086747,Rowing
"Holt, England",Holt,52.909359,1.086747,Diving
"Hythe, England",Hythe,51.071739,1.081937,Diving
"Canterbury, England",Canterbury,51.280233,1.0789089,Diving
"Mistley, England",Mistley,51.945625,1.0773489,Diving
"Chestfield, England",Chestfield,51.350328,1.065566,Diving
"Briston, England",Briston,52.854035,1.061784,Equestrian
"Great Bentley, England",Great Bentley,51.855588,1.061692,Diving
"Harbledown, England",Harbledown,51.2822607,1.0554223,Diving
"Capel Saint Mary, England",Capel Saint Mary,52.003245,1.050371,Diving
"Needham Market, England",Needham Market,52.155608,1.049566,Diving
"Blean, England",Blean,51.30666,1.042894,Diving
"Banham, England",Banham,52.451249,1.0402849,Equestrian
"Mattishall, England",Mattishall,52.658451,1.035252,Diving
"Lympne, England",Lympne,51.075215,1.025608,Equestrian
"Stowupland, England",Stowupland,52.196732,1.024537,Diving
"Whitstable, England",Whitstable,51.361047,1.024256,Cycling
"Brightlingsea, England",Brightlingsea,51.816142,1.021399,Diving
"Chartham, England",Chartham,51.254943,1.020534,Rowing
"East Bergholt, England",East Bergholt,51.978162,1.016404,Diving
"Attleborough, England",Attleborough,52.518064,1.015527,Diving
"Blakeney, England",Blakeney,52.953685,1.014356,Equestrian
"Blakeney, England",Blakeney,52.953685,1.014356,Diving
"Seasalter, England",Seasalter,51.3435459,1.0007672,Diving
"Rickinghall, England",Rickinghall,52.336208,0.991541,Equestrian
"Swanton Morley, England",Swanton Morley,52.7142709,0.986665,Diving
"Ardleigh, England",Ardleigh,51.926861,0.983113,Equestrian
"Wivenhoe, England",Wivenhoe,51.857997,0.965274,Diving
"Boughton-under-Blean, England",Boughton-under-Blean,51.293633,0.9575097,Rowing
"Hadleigh, England",Hadleigh,52.0450779,0.952647,Rowing
"Hadleigh, England",Hadleigh,52.0450779,0.952647,Diving
"North Elmham, England",North Elmham,52.754624,0.945277,Equestrian
"Aldington, England",Aldington,51.092058,0.944174,Diving
"New Romney, England",New Romney,50.985117,0.939473,Diving
"Wye, England",Wye,51.181903,0.937883,Equestrian
"East Harling, England",East Harling,52.4399298,0.9325681,Equestrian
"West Mersea, England",West Mersea,51.777645,0.928821,Diving
"Leysdown-on-Sea, England",Leysdown-on-Sea,51.3972,0.922017,Diving
"Beetley, England",Beetley,52.718983,0.915477,Diving
"Elmswell, England",Elmswell,52.236946,0.912511,Diving
"Colchester, England",Colchester,51.895927,0.891874,Diving
"Mile End, England",Mile End,51.910456,0.891423,Diving
"Faversham, England",Faversham,51.315994,0.889358,Equestrian
"Scarning, England",Scarning,52.6724249,0.88539,Diving
"Stanton, England",Stanton,52.32307,0.884803,Equestrian
"Ashford, England",Ashford,51.1464659,0.875019,Diving
"Kingsnorth, England",Kingsnorth,51.117936,0.863398,Diving
"Boxford, England",Boxford,52.0285129,0.859155,Diving
"West Bergholt, England",West Bergholt,51.907508,0.856427,Diving
"Layer de la Haye, England",Layer de la Haye,51.843403,0.856129,Equestrian
"Fakenham, England",Fakenham,52.831333,0.849324,Equestrian
"Wells-next-the-Sea, England",Wells-next-the-Sea,52.954641,0.848927,Equestrian
"Southminster, England",Southminster,51.662231,0.8300689,Diving
"Watton, England",Watton,52.570848,0.828023,Diving
"Thurston, England",Thurston,52.249881,0.823925,Diving
"Shadoxhurst, England",Shadoxhurst,51.104421,0.814639,Diving
"Burnham-on-Crouch, England",Burnham-on-Crouch,51.628347,0.814539,Diving
"Teynham, England",Teynham,51.329413,0.804532,Rowing
"Steeple, England",Steeple,51.690773,0.800535,Equestrian
"Copford, England",Copford,51.8804761,0.7992742,Diving
"Minster on Sea, England",Minster on Sea,51.4211991,0.7976003,Diving
"Camber, England",Camber,50.936711,0.795299,Diving
"Charing, England",Charing,51.211095,0.794606,Equestrian
"Marks Tey, England",Marks Tey,51.878823,0.793001,Rowing
"Bures, England",Bures,51.973881,0.777277,Equestrian
"Woodchurch, England",Woodchurch,51.072755,0.77639,Equestrian
"Mayland, England",Mayland,51.678309,0.772817,Equestrian
"Necton, England",Necton,52.652105,0.7722369,Rowing
"Sheerness, England",Sheerness,51.44011,0.764158,Diving
"Bethersden, England",Bethersden,51.129299,0.754022,Equestrian
"Thetford, England",Thetford,52.412856,0.751657,Diving
"Tiptree, England",Tiptree,51.812119,0.74656,Diving
"Rye, England",Rye,50.949708,0.73726,Equestrian
"Kemsley, England",Kemsley,51.3636989,0.735415,Diving
"Sittingbourne, England",Sittingbourne,51.340402,0.731596,Diving
"Sudbury, England",Sudbury,52.041047,0.726706,Diving
"Lenham, England",Lenham,51.239256,0.720655,Diving
"Latchingdon, England",Latchingdon,51.6721379,0.718923,Diving
"Feering, England",Feering,51.851512,0.716502,Diving
"Long Melford, England",Long Melford,52.074356,0.71633,Diving
"Southend-on-Sea, England",Southend-on-Sea,51.5459269,0.7077123,Diving
"Rochford, England",Rochford,51.582071,0.706515,Equestrian
"Kelvedon, England",Kelvedon,51.8329499,0.700921,Diving
"Earls Colne, England",Earls Colne,51.928775,0.69772,Rowing
"Coggeshall, England",Coggeshall,51.870799,0.692681,Diving
"Heybridge, England",Heybridge,51.7416569,0.689677,Diving
"Tenterden, England",Tenterden,51.069358,0.689122,Diving
"Swaffham, England",Swaffham,52.647466,0.687481,Diving
"Smarden, England",Smarden,51.149254,0.686871,Equestrian
"Peasmarsh, England",Peasmarsh,50.978169,0.677946,Diving
"Harrietsham, England",Harrietsham,51.2428529,0.677922,Equestrian
"Glemsford, England",Glemsford,52.096553,0.6685219,Diving
"Newington, England",Newington,51.352149,0.6667419,Diving
"Fairlight, England",Fairlight,50.8776458,0.6581801,Diving
"Mundford, England",Mundford,52.509032,0.651481,Diving
"Halstead, England",Halstead,51.945073,0.639032,Equestrian
"Halstead, England",Halstead,51.945073,0.639032,Diving
"Witham, England",Witham,51.7978049,0.6372179,Equestrian
"Silver End, England",Silver End,51.850862,0.6289169,Diving
"Docking, England",Docking,52.900455,0.6247239,Equestrian
"Brandon, England",Brandon,52.446542,0.622533,Diving
"Brandon, England",Brandon,52.446542,0.622533,Diving
"South Woodham Ferrers, England",South Woodham Ferrers,51.6465,0.614665,Diving
"Hullbridge, England",Hullbridge,51.622323,0.613007,Diving
"Weeting, England",Weeting,52.468558,0.609526,Diving
"Cressing, England",Cressing,51.85672,0.605984,Diving
"Rayleigh, England",Rayleigh,51.586385,0.604871,Diving
"Broad Oak, England",Broad Oak,50.949404,0.597865,Diving
"Hatfield Peverel, England",Hatfield Peverel,51.775127,0.59301,Diving
"Sible Hedingham, England",Sible Hedingham,51.980859,0.590327,Equestrian
"Bicknacre, England",Bicknacre,51.6921659,0.5836884,Diving
"Clare, England",Clare,52.078839,0.581507,Equestrian
"Danbury, England",Danbury,51.71552,0.580516,Diving
"Bearsted, England",Bearsted,51.2744349,0.578956,Diving
"Canvey Island, England",Canvey Island,51.517083,0.578411,Diving
"Little Baddow, England",Little Baddow,51.745216,0.574241,Equestrian
"Hastings, England",Hastings,50.854259,0.573453,Diving
"Westfield, England",Westfield,50.907646,0.572934,Diving
"Hempstead, England",Hempstead,51.3506659,0.5697449,Diving
"South Benfleet, England",South Benfleet,51.545415,0.568599,Diving
"Black Notley, England",Black Notley,51.855853,0.565553,Diving
"Great Yeldham, England",Great Yeldham,52.015846,0.563322,Equestrian
"Hoo, England",Hoo,51.420212,0.563312,Diving
"Staplehurst, England",Staplehurst,51.162752,0.552848,Diving
"Saint Leonards, England",Saint Leonards,50.8556382,0.5525772,Diving
"Saint Leonards, England",Saint Leonards,50.8556382,0.5525772,Diving
"Gillingham, England",Gillingham,51.386322,0.551438,Diving
"Gillingham, England",Gillingham,51.386322,0.551438,Equestrian
"Braintree, England",Braintree,51.880087,0.5509269,Equestrian
"Boreham, England",Boreham,51.760948,0.548168,Diving
"Runwell, England",Runwell,51.624847,0.540125,Diving
"Cranbrook, England",Cranbrook,51.095582,0.537639,Equestrian
"Boughton Monchelsea, England",Boughton Monchelsea,51.2329066,0.5322394,Equestrian
"Great Notley, England",Great Notley,51.8581564,0.5241528,Diving
"Maidstone, England",Maidstone,51.270363,0.522699,Diving
"Chatham, England",Chatham,51.380952,0.52213,Diving
"Lakenheath, England",Lakenheath,52.413917,0.521854,Diving
"Wickford, England",Wickford,51.611309,0.52068,Diving
"Feltwell, England",Feltwell,52.486378,0.519412,Diving
"Rayne, England",Rayne,51.87708,0.512703,Diving
"Wainscott, England",Wainscott,51.411397,0.510316,Diving
"Hawkhurst, England",Hawkhurst,51.046735,0.50947,Diving
"Dersingham, England",Dersingham,52.84245,0.507903,Diving
"Rochester, England",Rochester,51.388,0.506721,Diving
"Great Leighs, England",Great Leighs,51.827733,0.506252,Diving
"Coxheath, England",Coxheath,51.2327299,0.494452,Diving
"Heacham, England",Heacham,52.907743,0.49251,Equestrian
"Hunstanton, England",Hunstanton,52.9389139,0.491032,Diving
"Marden, England",Marden,51.173613,0.490709,Equestrian
"Basildon, England",Basildon,51.576084,0.488736,Diving
"Battle, England",Battle,50.917405,0.483679,Equestrian
"Aylesford, England",Aylesford,51.304309,0.47806,Diving
"Little Waltham, England",Little Waltham,51.789087,0.475378,Diving
"Ramsden Heath, England",Ramsden Heath,51.6356584,0.4724831,Diving
"Broomfield, England",Broomfield,51.76581,0.472056,Diving
"Bexhill, England",Bexhill,50.85,0.47,Diving
"Chelmsford, England",Chelmsford,51.7355868,0.4685497,Diving
"Cheveley, England",Cheveley,52.222596,0.462666,Equestrian
"Corringham, England",Corringham,51.522331,0.462047,Diving
"Goudhurst, England",Goudhurst,51.11306,0.457947,Diving
"Ditton, England",Ditton,51.294626,0.453853,Diving
"Cuxton, England",Cuxton,51.372939,0.452624,Diving
"Snodland, England",Snodland,51.3313,0.445068,Diving
"Stock, England",Stock,51.662543,0.443996,Equestrian
"Halling, England",Halling,51.352063,0.441702,Diving
"Haverhill, England",Haverhill,52.082766,0.440945,Diving
"East Malling, England",East Malling,51.287435,0.440026,Equestrian
"Writtle, England",Writtle,51.730815,0.430753,Diving
"Yalding, England",Yalding,51.22364,0.430255,Rowing
"Ninfield, England",Ninfield,50.8857,0.425741,Equestrian
"East Tilbury, England",East Tilbury,51.4710347,0.4243793,Diving
"Wateringbury, England",Wateringbury,51.254896,0.423035,Diving
"Langdon Hills, England",Langdon Hills,51.5617469,0.421311,Diving
"Linford, England",Linford,51.488705,0.41108,Diving
"Isleham, England",Isleham,52.340264,0.411017,Diving
"Ticehurst, England",Ticehurst,51.04619,0.409067,Equestrian
"West Malling, England",West Malling,51.2944249,0.408784,Diving
"Horndon on the Hill, England",Horndon on the Hill,51.5237407,0.4058616,Diving
"Helions Bumpstead, England",Helions Bumpstead,52.0482,0.4052,Diving
"King's Lynn, England",King's Lynn,52.7516798,0.4022963,Diving
"Ingatestone, England",Ingatestone,51.673794,0.3899059,Diving
"Barnston, England",Barnston,51.849844,0.38864,Equestrian
"Burwash, England",Burwash,50.998835,0.388428,Equestrian
"Fordham, England",Fordham,52.31187,0.38498,Equestrian
"Paddock Wood, England",Paddock Wood,51.1813239,0.38477,Diving
"Gravesend, England",Gravesend,51.441884,0.370759,Equestrian
"Matfield, England",Matfield,51.14817,0.366846,Diving
"Orsett, England",Orsett,51.5158,0.3663699,Diving
"Great Dunmow, England",Great Dunmow,51.872924,0.361707,Diving
"Tilbury, England",Tilbury,51.463024,0.360498,Diving
"Istead Rise, England",Istead Rise,51.404456,0.346541,Diving
"Ingrave, England",Ingrave,51.603012,0.34357,Diving
"West Horndon, England",West Horndon,51.5680539,0.340133,Rowing
"Wadhurst, England",Wadhurst,51.061756,0.33802,Equestrian
"Skegness, England",Skegness,53.146403,0.337881,Diving
"Soham, England",Soham,52.335212,0.3375079,Diving
"Chapel Saint Leonards, England",Chapel Saint Leonards,53.22382,0.3370369,Diving
"Northfleet, England",Northfleet,51.441072,0.33694,Diving
"Ingoldmells, England",Ingoldmells,53.193572,0.334345,Diving
"Burwell, England",Burwell,52.27492,0.327247,Equestrian
"New Barn, England",New Barn,51.3955186,0.3270922,Equestrian
"Pembury, England",Pembury,51.145276,0.324949,Diving
"Grays, England",Grays,51.4784037,0.3230151,Diving
"Southfleet, England",Southfleet,51.415951,0.32011,Diving
"Balsham, England",Balsham,52.131906,0.316153,Diving
"Littleport, England",Littleport,52.456703,0.3073659,Diving
"Brentwood, England",Brentwood,51.620475,0.3071749,Diving
"Hartley, England",Hartley,51.385147,0.304983,Equestrian
"New Ash Green, England",New Ash Green,51.367081,0.304457,Equestrian
"Terrington Saint Clement, England",Terrington Saint Clement,52.757843,0.296254,Equestrian
"Hook End, England",Hook End,51.6769289,0.2953832,Diving
"Eastbourne, England",Eastbourne,50.768035,0.290472,Diving
"Bean, England",Bean,51.42237,0.288259,Rowing
"Sutton on Sea, England",Sutton on Sea,53.312149,0.28132,Diving
"Linton, England",Linton,52.097776,0.277723,Equestrian
"Linton, England",Linton,52.097776,0.277723,Equestrian
"Tonbridge, England",Tonbridge,51.195043,0.27568,Diving
"Kelvedon Hatch, England",Kelvedon Hatch,51.669298,0.272712,Diving
"Royal Tunbridge Wells, England",Royal Tunbridge Wells,51.132377,0.263695,Diving
"Mayfield, England",Mayfield,51.020641,0.262427,Equestrian
"Mayfield, England",Mayfield,51.020641,0.262427,Equestrian
"Ely, England",Ely,52.399539,0.262363,Equestrian
"West Kingsdown, England",West Kingsdown,51.342412,0.261927,Diving
"Mablethorpe, England",Mablethorpe,53.340882,0.261071,Diving
"Southborough, England",Southborough,51.158069,0.2604079,Diving
"Bottisham, England",Bottisham,52.223476,0.25804,Cycling
"Heathfield, England",Heathfield,50.9667401,0.2564428,Diving
"Hailsham, England",Hailsham,50.864612,0.255234,Equestrian
"Aveley, England",Aveley,51.499018,0.2519159,Diving
"Chipping Ongar, England",Chipping Ongar,51.705395,0.244169,Diving
"Polegate, England",Polegate,50.824012,0.243813,Diving
"Purfleet, England",Purfleet,51.4867106,0.2433122,Diving
"Horam, England",Horam,50.93361,0.243262,Equestrian
"Hildenborough, England",Hildenborough,51.216814,0.239516,Diving
"Saffron Walden, England",Saffron Walden,52.022593,0.239215,Equestrian
"Burgh le Marsh, England",Burgh le Marsh,53.161988,0.238809,Diving
"Outwell, England",Outwell,52.612299,0.236705,Diving
"Sutton at Hone, England",Sutton at Hone,51.413735,0.232214,Diving
"Kemsing, England",Kemsing,51.305953,0.228754,Equestrian
"Seal, England",Seal,51.288241,0.222473,Diving
"Fulbourn, England",Fulbourn,52.18268,0.222039,Equestrian
"Stretham, England",Stretham,52.3494602,0.2203029,Diving
"Rotherfield, England",Rotherfield,51.046062,0.2194,Equestrian
"Hornchurch, England",Hornchurch,51.562254,0.218605,Diving
"Dartford, England",Dartford,51.44621,0.216872,Diving
"Witchford, England",Witchford,52.386073,0.210535,Diving
"Hatfield Heath, England",Hatfield Heath,51.813256,0.20735,Diving
"Great Chesterford, England",Great Chesterford,52.062757,0.19682,Equestrian
"Rainham, England",Rainham,51.517732,0.194831,Diving
"Rainham, England",Rainham,51.517732,0.194831,Diving
"Waterbeach, England",Waterbeach,52.265582,0.191002,Diving
"Sevenoaks, England",Sevenoaks,51.27241,0.190898,Diving
"Sutton Bridge, England",Sutton Bridge,52.769383,0.18895,Diving
"Alford, England",Alford,53.263271,0.183359,Diving
"Friskney, England",Friskney,53.076276,0.1803819,Diving
"Manea, England",Manea,52.484755,0.180177,Diving
"Romford, England",Romford,51.577076,0.178319,Diving
"Swanley, England",Swanley,51.396531,0.177326,Diving
"Wilburton, England",Wilburton,52.352064,0.176645,Diving
"Erith, England",Erith,51.480818,0.174675,Diving
"Sawston, England",Sawston,52.122665,0.169775,Rowing
"Dunton Green, England",Dunton Green,51.293989,0.168881,Diving
"Elm, England",Elm,52.639931,0.168053,Diving
"Crowborough, England",Crowborough,51.060853,0.165894,Equestrian
"Friday Bridge, England",Friday Bridge,52.620789,0.163311,Equestrian
"North Weald Bassett, England",North Weald Bassett,51.7146468,0.1631669,Diving
"Milton, England",Milton,52.243439,0.16144,Diving
"Milton, England",Milton,52.243439,0.16144,Diving
"Crockenhill, England",Crockenhill,51.3838099,0.161163,Diving
"Duxford, England",Duxford,52.092171,0.159301,Diving
"Wisbech, England",Wisbech,52.666317,0.158797,Diving
"Bishop's Stortford, England",Bishop's Stortford,51.869052,0.158605,Diving
"Whittlesford, England",Whittlesford,52.109299,0.156023,Diving
"Belvedere, England",Belvedere,51.485165,0.14827,Diving
"Dagenham, England",Dagenham,51.53889,0.14743,Diving
"Sawbridgeworth, England",Sawbridgeworth,51.81554,0.14721,Diving
"Great Shelford, England",Great Shelford,52.147141,0.138272,Diving
"Bexleyheath, England",Bexleyheath,51.453341,0.13822,Diving
"Leverington, England",Leverington,52.681716,0.1354229,Diving
"Cottenham, England",Cottenham,52.288837,0.124287,Diving
"Cambridge, England",Cambridge,52.205337,0.121817,Rowing
"Long Sutton, England",Long Sutton,52.7849778,0.1204287,Diving
"Abridge, England",Abridge,51.6493558,0.1188155,Diving
"Impington, England",Impington,52.2513031,0.1185319,Diving
"Welling, England",Welling,51.4622529,0.109744,Diving
"Epping, England",Epping,51.700328,0.108655,Diving
"Seaford, England",Seaford,50.7734669,0.101108,Diving
"Sidcup, England",Sidcup,51.4264863,0.1009392,Diving
"Wisbech Saint Mary, England",Wisbech Saint Mary,52.653176,0.097142,Diving
"Old Leake, England",Old Leake,53.030022,0.096468,Equestrian
"Theydon Bois, England",Theydon Bois,51.672497,0.09447,Diving
"Orpington, England",Orpington,51.374843,0.094214,Diving
"Spilsby, England",Spilsby,53.174675,0.0914399,Equestrian
"March, England",March,52.551716,0.088622,Diving
"Harlow, England",Harlow,51.767787,0.087806,Diving
"Maresfield, England",Maresfield,50.997137,0.087439,Equestrian
"Girton, England",Girton,52.240999,0.081396,Diving
"Wimblington, England",Wimblington,52.513795,0.0796729,Equestrian
"Harston, England",Harston,52.137009,0.0779659,Diving
"Chislehurst, England",Chislehurst,51.412626,0.077487,Diving
"Ilford, England",Ilford,51.556619,0.076251,Diving
"Barking, England",Barking,51.536563,0.075766,Diving
"Much Hadham, England",Much Hadham,51.856054,0.071866,Diving
"Westerham, England",Westerham,51.266969,0.071827,Diving
"Loughton, England",Loughton,51.655942,0.068161,Diving
"Doddington, England",Doddington,52.497714,0.0644229,Diving
"Oakington, England",Oakington,52.260094,0.064304,Diving
"Foxton, England",Foxton,52.114938,0.058251,Diving
"Willingham, England",Willingham,52.314234,0.057902,Rowing
"Haslingfield, England",Haslingfield,52.150143,0.055034,Equestrian
"Ringmer, England",Ringmer,50.892596,0.054667,Diving
"Chatteris, England",Chatteris,52.456102,0.054012,Diving
"Longstanton, England",Longstanton,52.27774,0.048734,Diving
"Nazeing, England",Nazeing,51.740644,0.048348,Diving
"Elmstead, England",Elmstead,51.4181359,0.045819,Diving
"Newhaven, England",Newhaven,50.79307,0.045574,Diving
"Roydon, England",Roydon,51.77296,0.03961,Equestrian
"Roydon, England",Roydon,51.77296,0.03961,Diving
"Buckhurst Hill, England",Buckhurst Hill,51.627572,0.034513,Rowing
"Forest Row, England",Forest Row,51.097391,0.033222,Diving
"Withernsea, England",Withernsea,53.731256,0.032889,Diving
"Biggin Hill, England",Biggin Hill,51.312059,0.032802,Diving
"Woodford, England",Woodford,51.6041751,0.0325025,Diving
"Comberton, England",Comberton,52.185417,0.020556,Diving
"Over, England",Over,52.312938,0.016875,Diving
"Melbourn, England",Melbourn,52.083869,0.016009,Rowing
"Newick, England",Newick,50.975252,0.014796,Equestrian
"Sibsey, England",Sibsey,53.036938,0.013961,Equestrian
"Holbeach, England",Holbeach,52.803991,0.013434,Equestrian
"Bromley, England",Bromley,51.406025,0.013156,Diving
"Stanstead Abbotts, England",Stanstead Abbotts,51.788598,0.009547,Rowing
"Furner's Green, England",Furner's Green,51.0201501,0.008644,Diving
"Bluntisham, England",Bluntisham,52.354774,0.008626,Diving
"Hardwick, England",Hardwick,52.2087999,0.008466,Equestrian
"Dormansland, England",Dormansland,51.164276,0.006899,Diving
"Meldreth, England",Meldreth,52.099618,0.006113,Diving
"Waltham Abbey, England",Waltham Abbey,51.685034,0.002723,Diving
"Oxted, England",Oxted,51.255714,-0.000003,Diving
"Somersham, England",Somersham,52.382565,-0.0021059,Equestrian
"Somersham, England",Somersham,52.382565,-0.0021059,Diving
"Swavesey, England",Swavesey,52.3010639,-0.004534,Diving
"Peacehaven, England",Peacehaven,50.793209,-0.005174,Diving
"Louth, England",Louth,53.365962,-0.007711,Equestrian
"Telscombe Cliffs, England",Telscombe Cliffs,50.795338,-0.012159,Diving
"Patrington, England",Patrington,53.683498,-0.013153,Diving
"East Grinstead, England",East Grinstead,51.128742,-0.014468,Equestrian
"West Wickham, England",West Wickham,51.375798,-0.014861,Diving
"Hoddesdon, England",Hoddesdon,51.760007,-0.015042,Diving
"New Addington, England",New Addington,51.348184,-0.017094,Diving
"Buntingford, England",Buntingford,51.946217,-0.018547,Diving
"Broxbourne, England",Broxbourne,51.743473,-0.021151,Diving
"Tetney, England",Tetney,53.490217,-0.0248789,Equestrian
"Humberston, England",Humberston,53.532174,-0.025742,Diving
"Beckenham, England",Beckenham,51.40817,-0.025813,Diving
"Cheshunt, England",Cheshunt,51.699888,-0.028486,Diving
"Cleethorpes, England",Cleethorpes,53.557378,-0.029435,Diving
"Woldingham, England",Woldingham,51.2860299,-0.033712,Diving
"Whaplode, England",Whaplode,52.800673,-0.033771,Equestrian
"Felbridge, England",Felbridge,51.138998,-0.039724,Equestrian
"Wyberton, England",Wyberton,52.953064,-0.0431319,Diving
"South Godstone, England",South Godstone,51.222252,-0.048366,Diving
"Warlingham, England",Warlingham,51.3093239,-0.055901,Diving
"North Thoresby, England",North Thoresby,53.466653,-0.056911,Equestrian
"Bassingbourn, England",Bassingbourn,52.077478,-0.059351,Rowing
"Kirton, England",Kirton,52.9266999,-0.060801,Diving
"Fenstanton, England",Fenstanton,52.300511,-0.06825,Diving
"Cambourne, England",Cambourne,52.22,-0.07,Diving
"Dalston, England",Dalston,51.5416685,-0.0700231,Diving
"Warboys, England",Warboys,52.404533,-0.077056,Equestrian
"Ardingly, England",Ardingly,51.0483649,-0.077884,Diving
"Enfield, England",Enfield,51.6522994,-0.0807119,Diving
"Grimsby, England",Grimsby,53.567471,-0.080784,Diving
"Hertford, England",Hertford,51.795756,-0.081157,Equestrian
"Crawley Down, England",Crawley Down,51.1254769,-0.081519,Diving
"Caterham, England",Caterham,51.280296,-0.0816159,Diving
"Lindfield, England",Lindfield,51.011234,-0.082082,Diving
"Sutterton, England",Sutterton,52.905634,-0.097756,Diving
"Croydon, England",Croydon,51.376165,-0.098234,Diving
"South Croydon, England",South Croydon,51.357428,-0.098251,Diving
"Bletchingley, England",Bletchingley,51.240586,-0.099162,Diving
"Kenley, England",Kenley,51.32633,-0.102494,Diving
"Waltham, England",Waltham,53.515744,-0.102956,Diving
"Thornton Heath, England",Thornton Heath,51.396747,-0.105523,Diving
"Hemingford Grey, England",Hemingford Grey,52.316646,-0.105936,Diving
"Watton at Stone, England",Watton at Stone,51.853449,-0.107746,Equestrian
"Ramsey, England",Ramsey,52.4503619,-0.1084655,Equestrian
"Ramsey, England",Ramsey,52.4503619,-0.1084655,Diving
"Kennington, England",Kennington,51.4879638,-0.1115584,Rowing
"Horncastle, England",Horncastle,53.207307,-0.11245,Diving
"Cuffley, England",Cuffley,51.705037,-0.11246,Diving
"Smallfield, England",Smallfield,51.171526,-0.116778,Diving
"Papworth Everard, England",Papworth Everard,52.24797,-0.116833,Diving
"Purley, England",Purley,51.339228,-0.119711,Diving
"Houghton, England",Houghton,52.333279,-0.120422,Diving
"Copthorne, England",Copthorne,51.139809,-0.121265,Diving
"Chaldon, England",Chaldon,51.285911,-0.124934,Rowing
"Walkern, England",Walkern,51.9181389,-0.1269299,Diving
"London, England",London,51.5073509,-0.1277583,Diving
"Wyton, England",Wyton,52.335443,-0.12806,Diving
"Burgess Hill, England",Burgess Hill,50.954469,-0.128701,Diving
"Whittlesey, England",Whittlesey,52.5581179,-0.1300956,Diving
"Brighton, England",Brighton,50.82253,-0.137163,Diving
"Clapham, England",Clapham,51.46231,-0.13857,Diving
"Clapham, England",Clapham,51.46231,-0.13857,Diving
"Cuckfield, England",Cuckfield,51.005813,-0.143636,Cycling
"Hassocks, England",Hassocks,50.9246755,-0.1460982,Equestrian
"Wallington, England",Wallington,51.363978,-0.151845,Diving
"Ashwell, England",Ashwell,52.040496,-0.154957,Equestrian
"Merstham, England",Merstham,51.259521,-0.15567,Rowing
"Tewin, England",Tewin,51.816333,-0.1585409,Equestrian
"Pinchbeck, England",Pinchbeck,52.813675,-0.158833,Diving
"Gosberton, England",Gosberton,52.870592,-0.161466,Equestrian
"Swineshead, England",Swineshead,52.946095,-0.162996,Diving
"Healing, England",Healing,53.578764,-0.16419,Diving
"Carshalton, England",Carshalton,51.365018,-0.164921,Equestrian
"Chipstead, England",Chipstead,51.315365,-0.164942,Diving
"Mitcham, England",Mitcham,51.402869,-0.166709,Diving
"Hove, England",Hove,50.8279319,-0.168749,Diving
"Crowland, England",Crowland,52.67677,-0.16876,Diving
"Laceby, England",Laceby,53.541883,-0.16921,Diving
"Horley, England",Horley,51.173516,-0.172109,Diving
"Hornsea, England",Hornsea,53.9104,-0.173953,Diving
"Coningsby, England",Coningsby,53.105091,-0.175141,Diving
"Godmanchester, England",Godmanchester,52.319427,-0.175166,Diving
"Hurstpierpoint, England",Hurstpierpoint,50.934439,-0.179902,Equestrian
"Tattershall, England",Tattershall,53.105673,-0.186283,Equestrian
"Stallingborough, England",Stallingborough,53.58584,-0.186296,Diving
"Crawley, England",Crawley,51.1091401,-0.1872275,Diving
"Gamlingay, England",Gamlingay,52.155551,-0.19286,Rowing
"Sutton, England",Sutton,51.3614279,-0.193961,Diving
"Sutton, England",Sutton,51.3614279,-0.193961,Diving
"Morden, England",Morden,51.394943,-0.19446,Diving
"Hedon, England",Hedon,53.7395,-0.1948,Diving
"Barnet, England",Barnet,51.6569225,-0.1949252,Diving
"Stevenage, England",Stevenage,51.903761,-0.196612,Diving
"Bridlington, England",Bridlington,54.08535,-0.198802,Diving
"Brookmans Park, England",Brookmans Park,51.71817,-0.199498,Diving
"Bolney, England",Bolney,50.995881,-0.203378,Equestrian
"Banstead, England",Banstead,51.3221909,-0.205046,Diving
"Reigate, England",Reigate,51.237276,-0.205883,Diving
"Donington, England",Donington,52.905563,-0.20595,Diving
"Welwyn Garden City, England",Welwyn Garden City,51.8031689,-0.208661,Diving
"Welwyn, England",Welwyn,51.832802,-0.212348,Diving
"Portslade, England",Portslade,50.842729,-0.21423,Diving
"Potton, England",Potton,52.127066,-0.215195,Diving
"Immingham, England",Immingham,53.614012,-0.215913,Diving
"Welham Green, England",Welham Green,51.73473,-0.216951,Diving
"Woodhall Spa, England",Woodhall Spa,53.151585,-0.218147,Equestrian
"Hatfield, England",Hatfield,51.763366,-0.22309,Diving
"Hatfield, England",Hatfield,51.763366,-0.22309,Diving
"Letchworth Garden City, England",Letchworth Garden City,51.979074,-0.226624,Diving
"Stotfold, England",Stotfold,52.016203,-0.232293,Diving
"Codicote, England",Codicote,51.849869,-0.235508,Equestrian
"Tadworth, England",Tadworth,51.2914048,-0.2363114,Equestrian
"Southwick, England",Southwick,50.8353139,-0.238234,Diving
"Southwick, England",Southwick,50.8353139,-0.238234,Diving
"Peterborough, England",Peterborough,52.5694985,-0.2405299,Diving
"Worcester Park, England",Worcester Park,51.38029,-0.24468,Diving
"New Malden, England",New Malden,51.400663,-0.259263,Diving
"Edgware, England",Edgware,51.615786,-0.262034,Diving
"Yaxley, England",Yaxley,52.51799,-0.262282,Diving
"Alconbury, England",Alconbury,52.365912,-0.262374,Equestrian
"Arlesey, England",Arlesey,52.015347,-0.26326,Diving
"Biggleswade, England",Biggleswade,52.086938,-0.26422,Diving
"Saint Neots, England",Saint Neots,52.2300836,-0.265103,Diving
"South Killingholme, England",South Killingholme,53.630955,-0.265186,Equestrian
"Epsom, England",Epsom,51.336036,-0.267382,Diving
"Henfield, England",Henfield,50.929798,-0.269507,Equestrian
"Shoreham-by-Sea, England",Shoreham-by-Sea,50.8342086,-0.2715558,Diving
"Langford, England",Langford,52.0543369,-0.271574,Equestrian
"Langford, England",Langford,52.0543369,-0.271574,Diving
"Borehamwood, England",Borehamwood,51.657728,-0.272308,Diving
"Cowfold, England",Cowfold,50.990827,-0.2728709,Diving
"Beeford, England",Beeford,53.972324,-0.274457,Diving
"Shenley, England",Shenley,51.6891436,-0.2777087,Equestrian
"Ickleford, England",Ickleford,51.97018,-0.279965,Diving
"Billinghay, England",Billinghay,53.080883,-0.281111,Equestrian
"Sawtry, England",Sawtry,52.4342169,-0.281978,Diving
"Kimpton, England",Kimpton,51.850962,-0.283599,Equestrian
"Henlow, England",Henlow,52.029845,-0.285839,Diving
"Sandy, England",Sandy,52.128118,-0.286788,Rowing
"Brockham, England",Brockham,51.232796,-0.288465,Equestrian
"Eaton Socon, England",Eaton Socon,52.22,-0.29,Diving
"Filey, England",Filey,54.210076,-0.290594,Diving
"Wheathampstead, England",Wheathampstead,51.81125,-0.292506,Diving
"Chessington, England",Chessington,51.363583,-0.296254,Diving
"Upper Caldecote, England",Upper Caldecote,52.099296,-0.296846,Diving
"Ashtead, England",Ashtead,51.310684,-0.296968,Diving
"Elstree, England",Elstree,51.644142,-0.298193,Diving
"London Colney, England",London Colney,51.7206084,-0.2994947,Diving
"Kingston upon Thames, England",Kingston upon Thames,51.41233,-0.300689,Rowing
"Surbiton, England",Surbiton,51.39401,-0.302662,Diving
"Richmond, England",Richmond,51.461311,-0.303742,Rowing
"Richmond, England",Richmond,51.461311,-0.303742,Rowing
"Wembley, England",Wembley,51.550501,-0.3048409,Diving
"Leven, England",Leven,53.892572,-0.309946,Diving
"Brentford, England",Brentford,51.486073,-0.3101169,Rowing
"Beare Green, England",Beare Green,51.172993,-0.313271,Rowing
"Caistor, England",Caistor,53.497485,-0.315393,Diving
"Radlett, England",Radlett,51.686808,-0.3173869,Diving
"Bardney, England",Bardney,53.210629,-0.318757,Diving
"Market Deeping, England",Market Deeping,52.67757,-0.319225,Diving
"Stanmore, England",Stanmore,51.616419,-0.319686,Diving
"Hunmanby, England",Hunmanby,54.1818121,-0.3203292,Diving
"Capel, England",Capel,51.153747,-0.32109,Equestrian
"Lancing, England",Lancing,50.828179,-0.328092,Diving
"Isleworth, England",Isleworth,51.467121,-0.329003,Rowing
"Leatherhead, England",Leatherhead,51.296407,-0.33112,Diving
"Teddington, England",Teddington,51.426799,-0.331342,Rowing
"Goxhill, England",Goxhill,53.678208,-0.332032,Equestrian
"Market Rasen, England",Market Rasen,53.387762,-0.333285,Equestrian
"Twickenham, England",Twickenham,51.444581,-0.335246,Rowing
"Hull, England",Hull,53.7456709,-0.3367413,Diving
"Sompting, England",Sompting,50.829533,-0.337416,Diving
"Maxey, England",Maxey,52.663,-0.338,Diving
"Thames Ditton, England",Thames Ditton,51.389686,-0.339189,Rowing
"Saint Albans, England",Saint Albans,51.752725,-0.339436,Diving
"Meppershall, England",Meppershall,52.0171769,-0.339999,Diving
"Claygate, England",Claygate,51.360219,-0.340969,Rowing
"Billingborough, England",Billingborough,52.891371,-0.341884,Diving
"Harrow, England",Harrow,51.580559,-0.341995,Diving
"Greenford, England",Greenford,51.531797,-0.34622,Diving
"Great Barford, England",Great Barford,52.155899,-0.347477,Equestrian
"Southwater, England",Southwater,51.022149,-0.353682,Equestrian
"Fetcham, England",Fetcham,51.288834,-0.356219,Diving
"Oxshott, England",Oxshott,51.334488,-0.35836,Equestrian
"Bushey, England",Bushey,51.647615,-0.35842,Diving
"Harpenden, England",Harpenden,51.81846,-0.358953,Diving
"Shillington, England",Shillington,51.9933679,-0.360131,Equestrian
"Molesey, England",Molesey,51.40202,-0.3634169,Rowing
"Esher, England",Esher,51.369487,-0.365927,Rowing
"Hampton, England",Hampton,51.4133939,-0.366712,Diving
"Worthing, England",Worthing,50.81787,-0.372882,Diving
"Hounslow, England",Hounslow,51.4609218,-0.373149,Diving
"Great Bookham, England",Great Bookham,51.2783826,-0.3733532,Rowing
"Southall, England",Southall,51.511073,-0.377232,Diving
"Pinner, England",Pinner,51.595172,-0.378002,Diving
"Stoke D'Abernon, England",Stoke D'Abernon,51.318697,-0.384045,Diving
"Kimbolton, England",Kimbolton,52.296978,-0.386705,Rowing
"Ruskington, England",Ruskington,53.044392,-0.387468,Rowing
"Watford, England",Watford,51.656489,-0.39032,Diving
"Redbourn, England",Redbourn,51.800133,-0.396403,Diving
"Slinfold, England",Slinfold,51.070901,-0.404297,Diving
"Eastfield, England",Eastfield,54.241826,-0.404577,Diving
"Findon, England",Findon,50.868561,-0.407111,Diving
"Metheringham, England",Metheringham,53.140035,-0.408263,Diving
"Sleaford, England",Sleaford,53.0003079,-0.40965,Rowing
"Feltham, England",Feltham,51.444148,-0.410772,Diving
"Cottingham, England",Cottingham,53.782081,-0.413978,Diving
"Walton-on-Thames, England",Walton-on-Thames,51.38847,-0.416969,Rowing
"Walton, England",Walton,51.38847,-0.416969,Diving
"Walton, England",Walton,51.38847,-0.416969,Diving
"Abbots Langley, England",Abbots Langley,51.707275,-0.4183259,Diving
"Luton, England",Luton,51.8786707,-0.4200255,Diving
"Ruislip, England",Ruislip,51.5758719,-0.421236,Diving
"Clophill, England",Clophill,52.027074,-0.42518,Rowing
"Barton-le-Clay, England",Barton-le-Clay,51.964454,-0.426942,Diving
"Leasingham, England",Leasingham,53.024613,-0.42779,Diving
"Northwood, England",Northwood,51.610289,-0.428278,Diving
"East Horsley, England",East Horsley,51.2621139,-0.432844,Rowing
"Harlington, England",Harlington,51.487296,-0.434749,Diving
"Hessle, England",Hessle,53.723805,-0.434858,Diving
"Beverley, England",Beverley,53.841963,-0.435093,Equestrian
"Hayes, England",Hayes,51.516758,-0.436786,Diving
"Slip End, England",Slip End,51.857405,-0.437184,Diving
"Willerby, England",Willerby,53.755103,-0.4375109,Diving
"Wittering, England",Wittering,52.6069074,-0.4390687,Diving
"Ickenham, England",Ickenham,51.563966,-0.442299,Diving
"Barton-upon-Humber, England",Barton-upon-Humber,53.686675,-0.443368,Diving
"Driffield, England",Driffield,54.005996,-0.443377,Equestrian
"Rudgwick, England",Rudgwick,51.095798,-0.444344,Equestrian
"Burniston, England",Burniston,54.322426,-0.445338,Diving
"Hemel Hempstead, England",Hemel Hempstead,51.753241,-0.448632,Diving
"Scalby, England",Scalby,54.298911,-0.450643,Equestrian
"Shepperton, England",Shepperton,51.389617,-0.452653,Rowing
"Cherry Willingham, England",Cherry Willingham,53.241669,-0.453765,Diving
"Storrington, England",Storrington,50.918329,-0.454313,Equestrian
"Caddington, England",Caddington,51.867828,-0.456651,Diving
"West Horsley, England",West Horsley,51.263484,-0.456781,Diving
"Weybridge, England",Weybridge,51.3716269,-0.457904,Rowing
"Heighington, England",Heighington,53.212471,-0.459257,Equestrian
"Heighington Village, England",Heighington Village,53.212471,-0.459257,Diving
"Wrawby, England",Wrawby,53.564348,-0.461694,Diving
"Cranwell Village, England",Cranwell Village,53.0367438,-0.4618317,Diving
"Ryhall, England",Ryhall,52.688042,-0.463969,Diving
"West Drayton, England",West Drayton,51.502985,-0.46541,Diving
"Bedford, England",Bedford,52.1359729,-0.4666546,Diving
"Byfleet, England",Byfleet,51.340125,-0.471357,Diving
"Branston, England",Branston,53.194403,-0.471656,Diving
"Washingborough, England",Washingborough,53.222252,-0.472636,Diving
"Oundle, England",Oundle,52.480202,-0.47267,Equestrian
"Rickmansworth, England",Rickmansworth,51.638763,-0.474131,Diving
"Stanwell, England",Stanwell,51.457942,-0.47427,Rowing
"East Ayton, England",East Ayton,54.256446,-0.47693,Diving
"Welton, England",Welton,53.3083219,-0.479467,Diving
"Welton, England",Welton,53.3083219,-0.479467,Diving
"Uxbridge, England",Uxbridge,51.5485,-0.479611,Diving
"Stamford, England",Stamford,52.651282,-0.480216,Equestrian
"Angmering, England",Angmering,50.829189,-0.483919,Diving
"Cranleigh, England",Cranleigh,51.141073,-0.483985,Equestrian
"Harefield, England",Harefield,51.60314,-0.484045,Equestrian
"East Preston, England",East Preston,50.811152,-0.48458,Diving
"Walkington, England",Walkington,53.820413,-0.48754,Equestrian
"Addlestone, England",Addlestone,51.369813,-0.488641,Diving
"Nettleham, England",Nettleham,53.26388,-0.488744,Diving
"Brigg, England",Brigg,53.55185,-0.491887,Diving
"Swanland, England",Swanland,53.738429,-0.492542,Diving
"Ampthill, England",Ampthill,52.031628,-0.493186,Rowing
"Denham, England",Denham,51.569583,-0.493857,Diving
"Kempston, England",Kempston,52.123418,-0.494809,Diving
"Westoning, England",Westoning,51.982732,-0.495539,Diving
"Flitwick, England",Flitwick,52.00384,-0.49656,Diving
"Sarratt, England",Sarratt,51.680419,-0.498811,Diving
"Mill End, England",Mill End,51.638747,-0.501445,Rowing
"Wisborough Green, England",Wisborough Green,51.022706,-0.504633,Equestrian
"West Clandon, England",West Clandon,51.263428,-0.50587,Equestrian
"North Ferriby, England",North Ferriby,53.722777,-0.506897,Diving
"Kensworth, England",Kensworth,51.851766,-0.507951,Equestrian
"Iver, England",Iver,51.5201939,-0.509572,Diving
"Pulborough, England",Pulborough,50.957304,-0.510671,Equestrian
"Maple Cross, England",Maple Cross,51.625448,-0.5108819,Diving
"Rustington, England",Rustington,50.803,-0.51249,Diving
"Studham, England",Studham,51.829654,-0.514969,Diving
"Stewartby, England",Stewartby,52.070269,-0.514975,Diving
"Staines-upon-Thames, England",Staines-upon-Thames,51.43148,-0.515525,Diving
"Chorleywood, England",Chorleywood,51.655632,-0.5161829,Rowing
"Loxwood, England",Loxwood,51.073582,-0.5193799,Rowing
"Dunstable, England",Dunstable,51.885644,-0.52039,Diving
"Houghton Regis, England",Houghton Regis,51.9038619,-0.524733,Diving
"Hibaldstow, England",Hibaldstow,53.510215,-0.527726,Diving
"Toddington, England",Toddington,51.948516,-0.532403,Diving
"Bracebridge Heath, England",Bracebridge Heath,53.195349,-0.5327809,Diving
"Flaunden, England",Flaunden,51.6983491,-0.5328266,Diving
"Chilworth, England",Chilworth,51.214386,-0.533594,Diving
"Chilworth, England",Chilworth,51.214386,-0.533594,Diving
"Ancaster, England",Ancaster,52.984184,-0.534458,Equestrian
"Bovingdon, England",Bovingdon,51.723391,-0.534632,Equestrian
"Thrapston, England",Thrapston,52.394588,-0.535859,Diving
"Waddington, England",Waddington,53.167215,-0.53671,Diving
"Lincoln, England",Lincoln,53.230688,-0.540579,Diving
"Raunds, England",Raunds,52.341695,-0.541032,Diving
"Scawby, England",Scawby,53.537446,-0.5415759,Diving
"Egham, England",Egham,51.428825,-0.547876,Diving
"Ringstead, England",Ringstead,52.362108,-0.550637,Diving
"Ketton, England",Ketton,52.6281083,-0.5528947,Diving
"Wraysbury, England",Wraysbury,51.454957,-0.55494,Diving
"Lidlington, England",Lidlington,52.039141,-0.556569,Diving
"Gerrards Cross, England",Gerrards Cross,51.582362,-0.5575,Rowing
"Bramley, England",Bramley,51.1948099,-0.55903,Equestrian
"Bramley, England",Bramley,51.1948099,-0.55903,Diving
"Bramley, England",Bramley,51.1948099,-0.55903,Diving
"Woking, England",Woking,51.316774,-0.5600349,Equestrian
"Stanwick, England",Stanwick,52.328738,-0.562508,Diving
"Little Chalfont, England",Little Chalfont,51.6693383,-0.5662178,Diving
"Berkhamsted, England",Berkhamsted,51.759766,-0.5678569,Diving
"Elloughton, England",Elloughton,53.740113,-0.569115,Rowing
"Englefield Green, England",Englefield Green,51.430044,-0.569947,Rowing
"Guildford, England",Guildford,51.23622,-0.570409,Diving
"Datchet, England",Datchet,51.483562,-0.5737679,Rowing
"Scampton, England",Scampton,53.3038979,-0.575706,Equestrian
"Old Windsor, England",Old Windsor,51.462058,-0.580836,Rowing
"Ford, England",Ford,50.822793,-0.582336,Diving
"North Hykeham, England",North Hykeham,53.18257,-0.5870959,Diving
"Higham Ferrers, England",Higham Ferrers,52.307374,-0.5928409,Diving
"Eaton Bray, England",Eaton Bray,51.876812,-0.593461,Equestrian
"Slough, England",Slough,51.5105384,-0.5950406,Rowing
"South Cave, England",South Cave,53.768138,-0.600799,Diving
"Winterton, England",Winterton,53.656213,-0.601631,Diving
"Chobham, England",Chobham,51.348056,-0.603858,Diving
"Amersham, England",Amersham,51.6755179,-0.607241,Diving
"Brigstock, England",Brigstock,52.458326,-0.608571,Equestrian
"Worplesdon, England",Worplesdon,51.272516,-0.610407,Diving
"Petworth, England",Petworth,50.9867009,-0.6107242,Equestrian
"Chesham, England",Chesham,51.709401,-0.612333,Diving
"Irthlingborough, England",Irthlingborough,52.3256,-0.613059,Diving
"Whitby, England",Whitby,54.486335,-0.613347,Diving
"Windsor, England",Windsor,51.4817279,-0.613576,Equestrian
"Knaphill, England",Knaphill,51.320041,-0.6138439,Diving
"Yapton, England",Yapton,50.819068,-0.616725,Diving
"Harrold, England",Harrold,52.199496,-0.618503,Rowing
"Walberton, England",Walberton,50.844731,-0.619031,Equestrian
"Skellingthorpe, England",Skellingthorpe,53.23642,-0.620636,Equestrian
"Colsterworth, England",Colsterworth,52.803453,-0.620661,Diving
"Aspley Guise, England",Aspley Guise,52.010696,-0.62743,Equestrian
"Chiddingfold, England",Chiddingfold,51.111281,-0.628183,Equestrian
"Sunningdale, England",Sunningdale,51.398353,-0.629905,Diving
"Weldon, England",Weldon,52.497863,-0.63268,Diving
"Bisley, England",Bisley,51.3294939,-0.638893,Diving
"Brookwood, England",Brookwood,51.305319,-0.639228,Diving
"West End, England",West End,51.337941,-0.641601,Rowing
"Grantham, England",Grantham,52.912524,-0.643582,Diving
"North Cave, England",North Cave,53.781902,-0.644551,Equestrian
"Pirbright, England",Pirbright,51.2913179,-0.645506,Diving
"Witley, England",Witley,51.149517,-0.646547,Equestrian
"Woburn Sands, England",Woburn Sands,52.0121808,-0.6473248,Diving
"Milford, England",Milford,51.173466,-0.650139,Rowing
"Messingham, England",Messingham,53.5275869,-0.651198,Diving
"Scunthorpe, England",Scunthorpe,53.588646,-0.654413,Diving
"Irchester, England",Irchester,52.278228,-0.655462,Diving
"Tring, England",Tring,51.796078,-0.655879,Equestrian
"Burnham, England",Burnham,51.53,-0.66,Diving
"Market Weighton, England",Market Weighton,53.862833,-0.66049,Diving
"Leighton Buzzard, England",Leighton Buzzard,51.9196839,-0.660657,Equestrian
"Sleights, England",Sleights,54.450344,-0.662365,Diving
"Cheddington, England",Cheddington,51.8478747,-0.6643975,Diving
"Cottesmore, England",Cottesmore,52.711747,-0.66532,Diving
"Windlesham, England",Windlesham,51.364561,-0.665847,Diving
"Saxilby, England",Saxilby,53.270689,-0.666012,Diving
"Sturton by Stow, England",Sturton by Stow,53.313868,-0.666558,Diving
"Scotter, England",Scotter,53.497705,-0.6677729,Cycling
"Wollaston, England",Wollaston,52.254748,-0.667788,Diving
"Westergate, England",Westergate,50.83817,-0.668412,Equestrian
"Gretton, England",Gretton,52.540168,-0.671606,Diving
"Bognor Regis, England",Bognor Regis,50.782998,-0.673061,Diving
"Normandy, England",Normandy,51.25627,-0.67315,Equestrian
"Penn, England",Penn,51.630335,-0.6738499,Rowing
"Ascot, England",Ascot,51.4062365,-0.6755624,Rowing
"Burton Latimer, England",Burton Latimer,52.365906,-0.678208,Diving
"Lightwater, England",Lightwater,51.3496049,-0.6792403,Diving
"Wooburn Green, England",Wooburn Green,51.588221,-0.679696,Rowing
"Corby, England",Corby,52.4922983,-0.6842333,Diving
"Burton upon Stather, England",Burton upon Stather,53.649532,-0.684465,Diving
"Taplow, England",Taplow,51.532169,-0.68796,Rowing
"Geddington, England",Geddington,52.438445,-0.690703,Diving
"Barrowby, England",Barrowby,52.9162139,-0.693959,Cycling
"Wellingborough, England",Wellingborough,52.302419,-0.693964,Diving
"Holmer Green, England",Holmer Green,51.665356,-0.694285,Diving
"Walnut Tree, England",Walnut Tree,52.0205138,-0.6947091,Rowing
"Broughton, England",Broughton,52.052928,-0.695391,Diving
"Broughton, England",Broughton,52.052928,-0.695391,Equestrian
"Broughton, England",Broughton,52.052928,-0.695391,Equestrian
"Broughton, England",Broughton,52.052928,-0.695391,Diving
"Bagshot, England",Bagshot,51.360343,-0.697894,Rowing
"Barton Seagrave, England",Barton Seagrave,52.387524,-0.698439,Diving
"Olney, England",Olney,52.154738,-0.7013779,Diving
"Loudwater, England",Loudwater,51.610441,-0.701444,Rowing
"Great Missenden, England",Great Missenden,51.702655,-0.70319,Equestrian
"Elstead, England",Elstead,51.1851783,-0.7034018,Equestrian
"Flackwell Heath, England",Flackwell Heath,51.597627,-0.706116,Rowing
"Great Doddington, England",Great Doddington,52.274229,-0.70681,Diving
"Cookham, England",Cookham,51.558437,-0.707741,Rowing
"Winkfield Row, England",Winkfield Row,51.430943,-0.710477,Diving
"Haslemere, England",Haslemere,51.090856,-0.713373,Diving
"Blyton, England",Blyton,53.44498,-0.713575,Diving
"Tangmere, England",Tangmere,50.847972,-0.716345,Diving
"Wing, England",Wing,51.898003,-0.7178314,Diving
"Uppingham, England",Uppingham,52.591225,-0.718484,Equestrian
"Thornton Dale, England",Thornton Dale,54.2366438,-0.7191111,Diving
"Maidenhead, England",Maidenhead,51.522414,-0.7219,Rowing
"Ash Vale, England",Ash Vale,51.264376,-0.7219719,Diving
"Fernhurst, England",Fernhurst,51.049478,-0.723391,Equestrian
"Ash, England",Ash,51.248116,-0.725394,Equestrian
"Ash, England",Ash,51.248116,-0.725394,Diving
"Great Kingshill, England",Great Kingshill,51.675576,-0.725896,Rowing
"Oakham, England",Oakham,52.6695629,-0.726625,Equestrian
"Wilby, England",Wilby,52.285401,-0.727033,Rowing
"Aston Clinton, England",Aston Clinton,51.7961637,-0.7277128,Diving
"Frimley Green, England",Frimley Green,51.305608,-0.72909,Diving
"Tongham, England",Tongham,51.233476,-0.731719,Diving
"Newport Pagnell, England",Newport Pagnell,52.084585,-0.734583,Diving
"Wingrave, England",Wingrave,51.863999,-0.736082,Diving
"Midhurst, England",Midhurst,50.9868979,-0.737274,Diving
"Prestwood, England",Prestwood,51.694539,-0.7375469,Diving
"Keadby, England",Keadby,53.596693,-0.73951,Equestrian
"Wendover, England",Wendover,51.761877,-0.739779,Diving
"Claypole, England",Claypole,53.03189,-0.739838,Equestrian
"Gilberdyke, England",Gilberdyke,53.754398,-0.740441,Diving
"Warfield, England",Warfield,51.434555,-0.747488,Rowing
"High Wycombe, England",High Wycombe,51.628611,-0.748229,Rowing
"Bletchley, England",Bletchley,52.002175,-0.750137,Diving
"Langham, England",Langham,52.687539,-0.7521719,Diving
"Weston Turville, England",Weston Turville,51.7906989,-0.75248,Diving
"Farnborough, England",Farnborough,51.2868939,-0.752615,Diving
"Earls Barton, England",Earls Barton,52.26682,-0.752765,Diving
"Hughenden Valley, England",Hughenden Valley,51.66296,-0.753333,Diving
"Coddington, England",Coddington,53.082062,-0.754144,Diving
"Aldershot, England",Aldershot,51.248366,-0.7557509,Diving
"Great Linford, England",Great Linford,52.0694518,-0.7566366,Diving
"Milton Keynes, England",Milton Keynes,52.0406224,-0.7594171,Diving
"Long Bennington, England",Long Bennington,52.996266,-0.760111,Diving
"Stewkley, England",Stewkley,51.92678,-0.761755,Equestrian
"Furzton, England",Furzton,52.0095968,-0.7660025,Diving
"Downley, England",Downley,51.652002,-0.766602,Diving
"Newton Longville, England",Newton Longville,51.973908,-0.767583,Diving
"Royal Military Academy, England",Royal Military Academy,51.3425885,-0.7683128,Rowing
"Stantonbury, England",Stantonbury,52.0662835,-0.7685992,Diving
"Naphill, England",Naphill,51.662785,-0.77034,Rowing
"Bradwell Common, England",Bradwell Common,52.0448117,-0.7707599,Diving
"Balderton, England",Balderton,53.056291,-0.774821,Diving
"Chichester, England",Chichester,50.83761,-0.774936,Diving
"Marlow, England",Marlow,51.5719443,-0.7769422,Rowing
"Pickering, England",Pickering,54.243925,-0.777553,Diving
"Holme-on-Spalding-Moor, England",Holme-on-Spalding-Moor,53.834823,-0.778439,Equestrian
"Churt, England",Churt,51.137386,-0.778877,Diving
"Pocklington, England",Pocklington,53.931023,-0.778948,Diving
"Whissendine, England",Whissendine,52.719343,-0.77907,Equestrian
"College Town, England",College Town,51.3449387,-0.7796946,Diving
"Bradville, England",Bradville,52.0602526,-0.7800726,Diving
"Owlsmoor, England",Owlsmoor,51.3548369,-0.7809306,Diving
"Owston Ferry, England",Owston Ferry,53.494225,-0.783258,Equestrian
"Norton, England",Norton,54.132775,-0.783321,Equestrian
"Norton, England",Norton,54.132775,-0.783321,Diving
"Binfield, England",Binfield,51.431488,-0.788077,Diving
"Cogenhoe, England",Cogenhoe,52.236365,-0.789288,Rowing
"Shenley Church End, England",Shenley Church End,52.023706,-0.789482,Diving
"Stoke Mandeville, England",Stoke Mandeville,51.786027,-0.791595,Diving
"Selsey, England",Selsey,50.730991,-0.793704,Diving
"Crowthorne, England",Crowthorne,51.366901,-0.795353,Diving
"Staithes, England",Staithes,54.556434,-0.795478,Diving
"Farnham, England",Farnham,51.214321,-0.798802,Diving
"Headley Down, England",Headley Down,51.116202,-0.800412,Equestrian
"Liphook, England",Liphook,51.07661,-0.801777,Diving
"Bottesford, England",Bottesford,52.940232,-0.802883,Diving
"Two Mile Ash, England",Two Mile Ash,52.0395851,-0.8035785,Diving
"Sandhurst, England",Sandhurst,51.3462419,-0.804268,Diving
"Hurley, England",Hurley,51.549254,-0.807678,Diving
"Aylesbury, England",Aylesbury,51.815606,-0.8084,Diving
"Newark-on-Trent, England",Newark-on-Trent,53.0765,-0.81,Equestrian
"Sutton on Trent, England",Sutton on Trent,53.185446,-0.811975,Diving
"Wolverton, England",Wolverton,52.062458,-0.816221,Diving
"Belton, England",Belton,53.551891,-0.81833,Diving
"Belton, England",Belton,53.551891,-0.81833,Diving
"Epworth, England",Epworth,53.52903,-0.8218029,Equestrian
"Desborough, England",Desborough,52.441465,-0.822557,Diving
"Yateley, England",Yateley,51.3411577,-0.825203,Diving
"Headley, England",Headley,51.119916,-0.82612,Rowing
"Hanslope, England",Hanslope,52.115155,-0.828192,Diving
"Crowle, England",Crowle,53.611325,-0.832159,Diving
"Wokingham, England",Wokingham,51.410457,-0.833861,Diving
"Lane End, England",Lane End,51.6188538,-0.8345038,Rowing
"Church Crookham, England",Church Crookham,51.260089,-0.840604,Diving
"Fleet, England",Fleet,51.277283,-0.842655,Diving
"Misterton, England",Misterton,53.446531,-0.848292,Cycling
"Stony Stratford, England",Stony Stratford,52.05702,-0.849039,Diving
"Moulton, England",Moulton,52.28869,-0.8534,Diving
"Hartwell, England",Hartwell,52.143801,-0.853971,Diving
"Bosham, England",Bosham,50.829002,-0.857678,Equestrian
"Finchampstead, England",Finchampstead,51.3624409,-0.858333,Rowing
"Bordon, England",Bordon,51.115613,-0.861611,Diving
"Twyford, England",Twyford,51.476821,-0.863167,Rowing
"Twyford, England",Twyford,51.476821,-0.863167,Diving
"Old Stratford, England",Old Stratford,52.063158,-0.864726,Diving
"Howden, England",Howden,53.745894,-0.868877,Diving
"Westwoodside, England",Westwoodside,53.491059,-0.869484,Rowing
"Whitehill, England",Whitehill,51.099662,-0.871181,Diving
"Hardingstone, England",Hardingstone,52.210909,-0.878644,Diving
"Winslow, England",Winslow,51.944859,-0.878737,Diving
"Winnersh, England",Winnersh,51.428089,-0.879365,Diving
"Charvil, England",Charvil,51.4752783,-0.8868548,Diving
"Melton Mowbray, England",Melton Mowbray,52.766404,-0.887126,Diving
"Eversley, England",Eversley,51.35248,-0.889119,Diving
"Loftus, England",Loftus,54.553041,-0.889884,Equestrian
"Deanshanger, England",Deanshanger,52.052738,-0.891088,Equestrian
"Liss, England",Liss,51.0427301,-0.8917764,Equestrian
"Roade, England",Roade,52.164642,-0.892523,Diving
"Harby, England",Harby,52.8708979,-0.895212,Equestrian
"West Wittering, England",West Wittering,50.7805449,-0.895939,Diving
"Tuxford, England",Tuxford,53.229497,-0.898207,Diving
"Northampton, England",Northampton,52.240477,-0.902656,Diving
"Henley-on-Thames, England",Henley-on-Thames,51.535764,-0.902894,Rowing
"Woodley, England",Woodley,51.4516523,-0.902918,Diving
"Brixworth, England",Brixworth,52.33072,-0.905283,Diving
"Sonning, England",Sonning,51.4731961,-0.9065736,Rowing
"Chinnor, England",Chinnor,51.701181,-0.908629,Equestrian
"Stamford Bridge, England",Stamford Bridge,53.989,-0.912544,Equestrian
"Waddesdon, England",Waddesdon,51.845396,-0.917426,Diving
"Earley, England",Earley,51.4308125,-0.9211178,Diving
"Market Harborough, England",Market Harborough,52.475769,-0.921517,Equestrian
"Haddenham, England",Haddenham,51.77334,-0.925965,Equestrian
"Haddenham, England",Haddenham,51.77334,-0.925965,Diving
"Cuddington, England",Cuddington,51.792527,-0.927347,Rowing
"Long Clawson, England",Long Clawson,52.838152,-0.930187,Diving
"Elvington, England",Elvington,53.920061,-0.934786,Equestrian
"Brotton, England",Brotton,54.568162,-0.937091,Equestrian
"Emsworth, England",Emsworth,50.848132,-0.937928,Diving
"Petersfield, England",Petersfield,51.007591,-0.93899,Equestrian
"Blisworth, England",Blisworth,52.17311,-0.939055,Rowing
"Odiham, England",Odiham,51.254383,-0.939525,Equestrian
"Retford, England",Retford,53.321356,-0.945503,Diving
"North Warnborough, England",North Warnborough,51.26041,-0.952825,Rowing
"Bingham, England",Bingham,52.951088,-0.956144,Diving
"Asfordby, England",Asfordby,52.76523,-0.958408,Equestrian
"Southwell, England",Southwell,53.079044,-0.959921,Equestrian
"Lingdale, England",Lingdale,54.53789,-0.960885,Diving
"Thorne, England",Thorne,53.6104213,-0.9614398,Diving
"Hook, England",Hook,51.280906,-0.963043,Equestrian
"Rawcliffe, England",Rawcliffe,53.699709,-0.965041,Diving
"Rawcliffe, England",Rawcliffe,53.699709,-0.965041,Equestrian
"East Bridgford, England",East Bridgford,52.979014,-0.973172,Equestrian
"Alton, England",Alton,51.150719,-0.973177,Diving
"Alton, England",Alton,51.150719,-0.973177,Diving
"Thame, England",Thame,51.746997,-0.974188,Diving
"Saltburn-by-the-Sea, England",Saltburn-by-the-Sea,54.58156,-0.975134,Diving
"Sonning Common, England",Sonning Common,51.519629,-0.976911,Diving
"Reading, England",Reading,51.4542645,-0.9781303,Rowing
"Kislingbury, England",Kislingbury,52.226684,-0.97832,Diving
"Hemingbrough, England",Hemingbrough,53.76595,-0.982707,Equestrian
"Havant, England",Havant,50.8518324,-0.9847132,Diving
"Skelton-in-Cleveland, England",Skelton-in-Cleveland,54.561954,-0.98951,Diving
"Towcester, England",Towcester,52.135107,-0.989688,Equestrian
"Boughton, England",Boughton,53.2085682,-0.9900065,Diving
"Kibworth Harcourt, England",Kibworth Harcourt,52.545639,-0.994587,Diving
"Long Crendon, England",Long Crendon,51.773991,-1.001586,Diving
"Old Dalby, England",Old Dalby,52.805229,-1.001836,Equestrian
"Lowdham, England",Lowdham,53.011393,-1.005986,Equestrian
"Bugbrooke, England",Bugbrooke,52.209459,-1.008998,Diving
"Watlington, England",Watlington,51.645079,-1.010546,Rowing
"New Ollerton, England",New Ollerton,53.208414,-1.012229,Diving
"Auckley, England",Auckley,53.4986307,-1.0176237,Cycling
"Bawtry, England",Bawtry,53.43125,-1.018515,Diving
"Marske-by-the-Sea, England",Marske-by-the-Sea,54.591928,-1.019708,Diving
"Greens Norton, England",Greens Norton,52.142671,-1.022441,Equestrian
"Snaith, England",Snaith,53.69109,-1.023942,Diving
"Sherfield on Loddon, England",Sherfield on Loddon,51.31795,-1.0240229,Equestrian
"Stainforth, England",Stainforth,53.5944945,-1.0300371,Equestrian
"Great Glen, England",Great Glen,52.575082,-1.032874,Equestrian
"Bilsthorpe, England",Bilsthorpe,53.1417371,-1.0339645,Diving
"Radcliffe on Trent, England",Radcliffe on Trent,52.94341,-1.034344,Equestrian
"Burton Joyce, England",Burton Joyce,52.986554,-1.037903,Rowing
"Farnsfield, England",Farnsfield,53.103961,-1.039752,Diving
"New Marske, England",New Marske,54.581665,-1.040978,Diving
"Cotgrave, England",Cotgrave,52.911411,-1.041255,Diving
"Barlby, England",Barlby,53.800885,-1.041382,Diving
"Four Marks, England",Four Marks,51.109383,-1.043758,Equestrian
"Fleckney, England",Fleckney,52.537602,-1.045275,Diving
"Calcot, England",Calcot,51.4409978,-1.04591,Diving
"Old Basing, England",Old Basing,51.2712379,-1.048876,Diving
"Guisborough, England",Guisborough,54.536241,-1.049544,Diving
"Brill, England",Brill,51.8209023,-1.0518395,Rowing
"Armthorpe, England",Armthorpe,53.5352099,-1.0522282,Diving
"Bircotes, England",Bircotes,53.415462,-1.053387,Diving
"Helmsley, England",Helmsley,54.246572,-1.054344,Diving
"Welford, England",Welford,52.414995,-1.056133,Diving
"Huntington, England",Huntington,53.993766,-1.05686,Diving
"Huntington, England",Huntington,53.993766,-1.05686,Equestrian
"Rossington, England",Rossington,53.476704,-1.059747,Diving
"Medstead, England",Medstead,51.128381,-1.060312,Diving
"Chineham, England",Chineham,51.291936,-1.060384,Diving
"Mortimer, England",Mortimer,51.3767071,-1.0617235,Equestrian
"Burghfield Common, England",Burghfield Common,51.396348,-1.0621,Diving
"Woodborough, England",Woodborough,53.023878,-1.0634889,Cycling
"Denmead, England",Denmead,50.90504,-1.064882,Diving
"Edwinstowe, England",Edwinstowe,53.196232,-1.066758,Diving
"Selby, England",Selby,53.783524,-1.067189,Equestrian
"Barnby Dun, England",Barnby Dun,53.575694,-1.068506,Rowing
"Syston, England",Syston,52.699259,-1.072792,Diving
"Fulford, England",Fulford,53.938,-1.073,Equestrian
"Kirk Sandall, England",Kirk Sandall,53.5639,-1.07407,Diving
"Netherfield, England",Netherfield,52.962732,-1.074676,Diving
"Theale, England",Theale,51.440563,-1.074725,Diving
"New Rossington, England",New Rossington,53.473432,-1.076957,Diving
"West Haddon, England",West Haddon,52.340659,-1.077033,Rowing
"Harworth, England",Harworth,53.417214,-1.077409,Diving
"Oadby, England",Oadby,52.602936,-1.078186,Diving
"Weedon Bec, England",Weedon Bec,52.230983,-1.078198,Equestrian
"Long Buckby, England",Long Buckby,52.303646,-1.0799049,Diving
"Gedling, England",Gedling,52.973455,-1.0800559,Diving
"Portsmouth, England",Portsmouth,50.816667,-1.083333,Diving
"Bembridge, England",Bembridge,50.685956,-1.0835189,Equestrian
"Hambledon, England",Hambledon,50.931636,-1.086495,Diving
"Calverton, England",Calverton,53.037638,-1.08666,Diving
"Pangbourne, England",Pangbourne,51.482245,-1.087156,Equestrian
"York, England",York,53.9599651,-1.0872979,Diving
"Ropley, England",Ropley,51.079446,-1.089307,Equestrian
"Brayton, England",Brayton,53.767422,-1.0901019,Equestrian
"Keyworth, England",Keyworth,52.870947,-1.090254,Diving
"Thurmaston, England",Thurmaston,52.6719771,-1.0911742,Diving
"Basingstoke, England",Basingstoke,51.26654,-1.0923964,Diving
"Bishopthorpe, England",Bishopthorpe,53.9210967,-1.1002664,Rowing
"Benson, England",Benson,51.621665,-1.104306,Rowing
"Wymeswold, England",Wymeswold,52.806001,-1.105156,Equestrian
"Tickhill, England",Tickhill,53.4329349,-1.1093635,Equestrian
"Crowmarsh Gifford, England",Crowmarsh Gifford,51.596782,-1.1097109,Diving
"Sherborne Saint John, England",Sherborne Saint John,51.295243,-1.109814,Diving
"Sileby, England",Sileby,52.729949,-1.110268,Diving
"Carlton in Lindrick, England",Carlton in Lindrick,53.351359,-1.113712,Diving
"Blidworth, England",Blidworth,53.097907,-1.115293,Diving
"Launton, England",Launton,51.893778,-1.116269,Equestrian
"Edwalton, England",Edwalton,52.91328,-1.116497,Diving
"Gosport, England",Gosport,50.794995,-1.117547,Diving
"Birstall, England",Birstall,52.6762588,-1.1194045,Diving
"Langold, England",Langold,53.37936,-1.119675,Diving
"Ambrosden, England",Ambrosden,51.869895,-1.120777,Diving
"Worksop, England",Worksop,53.309302,-1.122745,Equestrian
"Rainworth, England",Rainworth,53.120619,-1.123482,Diving
"Thorpe Willoughby, England",Thorpe Willoughby,53.774434,-1.125688,Diving
"Acomb, England",Acomb,53.955,-1.126,Rowing
"Clipstone, England",Clipstone,53.160813,-1.126034,Diving
"Goring, England",Goring,51.5217669,-1.127205,Rowing
"Doncaster, England",Doncaster,53.52282,-1.128462,Diving
"Portchester, England",Portchester,50.839988,-1.12882,Diving
"Wheatley, England",Wheatley,51.746021,-1.129617,Equestrian
"Arnold, England",Arnold,53.000708,-1.131863,Diving
"Tadley, England",Tadley,51.343801,-1.132169,Diving
"Copmanthorpe, England",Copmanthorpe,53.916,-1.133,Diving
"West Bridgford, England",West Bridgford,52.935673,-1.134017,Diving
"Crick, England",Crick,52.347591,-1.136643,Diving
"Rothley, England",Rothley,52.70915,-1.137362,Diving
"Leicester, England",Leicester,52.6368778,-1.1397592,Diving
"Mountsorrel, England",Mountsorrel,52.725644,-1.140136,Diving
"Great Ayton, England",Great Ayton,54.491018,-1.1402159,Equestrian
"Countesthorpe, England",Countesthorpe,52.553623,-1.1421539,Diving
"Brackley, England",Brackley,52.027411,-1.143152,Equestrian
"Brading, England",Brading,50.679825,-1.1445399,Rowing
"Bentley, England",Bentley,53.5476953,-1.1454921,Diving
"Bentley, England",Bentley,53.5476953,-1.1454921,Diving
"Eggborough, England",Eggborough,53.703974,-1.14555,Diving
"Barrow upon Soar, England",Barrow upon Soar,52.7524019,-1.148755,Diving
"Lerwick, Scotland",Lerwick,60.1529871,-1.1492932,Diving
"Ruddington, England",Ruddington,52.894929,-1.1515709,Diving
"Streatley, England",Streatley,51.525571,-1.151665,Rowing
"Bicester, England",Bicester,51.899603,-1.1535899,Diving
"Cholsey, England",Cholsey,51.5759029,-1.154471,Equestrian
"Warsop, England",Warsop,53.2043315,-1.1548923,Diving
"Askern, England",Askern,53.617273,-1.155753,Diving
"Garsington, England",Garsington,51.717761,-1.155781,Equestrian
"Church Warsop, England",Church Warsop,53.213184,-1.156888,Equestrian
"Nottingham, England",Nottingham,52.9547832,-1.1581086,Diving
"New Alresford, England",New Alresford,51.090632,-1.161219,Equestrian
"Ryde, England",Ryde,50.729952,-1.163282,Cycling
"Blaby, England",Blaby,52.574344,-1.163394,Diving
"Daventry, England",Daventry,52.257473,-1.164947,Diving
"Nunthorpe, England",Nunthorpe,54.526824,-1.168795,Diving
"Quorn, England",Quorn,52.742709,-1.1699139,Diving
"Ormesby, England",Ormesby,54.5448022,-1.1721427,Diving
"Ravenshead, England",Ravenshead,53.092126,-1.172284,Diving
"Shanklin, England",Shanklin,50.634675,-1.175199,Diving
"Bestwood Village, England",Bestwood Village,53.0249925,-1.1759578,Diving
"Horspath, England",Horspath,51.73837,-1.176088,Diving
"Swanmore, England",Swanmore,50.943199,-1.176257,Equestrian
"Kilsby, England",Kilsby,52.334853,-1.18045,Diving
"East Leake, England",East Leake,52.82906,-1.183133,Diving
"Stokesley, England",Stokesley,54.471908,-1.18531,Equestrian
"Fareham, England",Fareham,50.8548464,-1.1865868,Diving
"Anstey, England",Anstey,52.671727,-1.188402,Diving
"Wickham, England",Wickham,50.898199,-1.188434,Equestrian
"Oakley, England",Oakley,51.250869,-1.188708,Diving
"Sprotbrough, England",Sprotbrough,53.512075,-1.1889623,Diving
"Adwick le Street, England",Adwick le Street,53.5722088,-1.189055,Diving
"Mansfield Woodhouse, England",Mansfield Woodhouse,53.166472,-1.189765,Diving
"Clifton, England",Clifton,52.91,-1.19,Diving
"Clifton, England",Clifton,52.91,-1.19,Diving
"Clifton, England",Clifton,52.91,-1.19,Diving
"Easingwold, England",Easingwold,54.120007,-1.191878,Equestrian
"Cosby, England",Cosby,52.548406,-1.193318,Diving
"New Edlington, England",New Edlington,53.4783182,-1.1933845,Diving
"Seaton Carew, England",Seaton Carew,54.6607742,-1.1935112,Diving
"Mansfield, England",Mansfield,53.147195,-1.198674,Diving
"Glenfield, England",Glenfield,52.646056,-1.199493,Diving
"Waltham Chase, England",Waltham Chase,50.931665,-1.200387,Equestrian
"Maltby, England",Maltby,53.422615,-1.201148,Diving
"Hucknall, England",Hucknall,53.034152,-1.20289,Diving
"Dinnington, England",Dinnington,53.372587,-1.203068,Diving
"Skellow, England",Skellow,53.588076,-1.2034866,Diving
"Loughborough, England",Loughborough,52.772099,-1.206166,Equestrian
"Marton-in-Cleveland, England",Marton-in-Cleveland,54.53864,-1.206954,Diving
"Whitwell, England",Whitwell,53.285594,-1.209239,Cycling
"Creswell, England",Creswell,53.265246,-1.212215,Diving
"Beeston, England",Beeston,52.92392,-1.212394,Diving
"Hartlepool, England",Hartlepool,54.691745,-1.212926,Diving
"North Anston, England",North Anston,53.357346,-1.2134069,Diving
"Bishop's Waltham, England",Bishop's Waltham,50.952732,-1.213745,Diving
"Woodhouse Eaves, England",Woodhouse Eaves,52.722995,-1.215548,Equestrian
"Shirebrook, England",Shirebrook,53.2019189,-1.217961,Diving
"Coulby Newham, England",Coulby Newham,54.520803,-1.21972,Diving
"Enderby, England",Enderby,52.5967718,-1.219941,Diving
"Church Fenton, England",Church Fenton,53.825096,-1.221017,Diving
"Broughton Astley, England",Broughton Astley,52.527836,-1.221417,Diving
"Clifton upon Dunsmore, England",Clifton upon Dunsmore,52.3828432,-1.2214504,Diving
"Wroxall, England",Wroxall,50.615963,-1.222199,Rowing
"Conisbrough, England",Conisbrough,53.4805944,-1.2263372,Diving
"Groby, England",Groby,52.660536,-1.230258,Diving
"Wootton Bridge, England",Wootton Bridge,50.72628,-1.232089,Diving
"Kirby Muxloe, England",Kirby Muxloe,52.6306148,-1.2331436,Cycling
"Middlesbrough, England",Middlesbrough,54.574227,-1.234956,Diving
"Nuthall, England",Nuthall,52.993443,-1.236939,Rowing
"Whiteley, England",Whiteley,50.880939,-1.24068,Diving
"Kingsclere, England",Kingsclere,51.325073,-1.241705,Equestrian
"Titchfield, England",Titchfield,50.8485889,-1.241713,Diving
"Byfield, England",Byfield,52.176843,-1.241936,Diving
"Bramcote, England",Bramcote,52.934196,-1.242837,Diving
"Knottingley, England",Knottingley,53.707105,-1.2437419,Diving
"South Milford, England",South Milford,53.77827,-1.2442979,Equestrian
"Ratby, England",Ratby,52.649558,-1.244469,Diving
"Didcot, England",Didcot,51.608044,-1.24484,Rowing
"Sherburn in Elmet, England",Sherburn in Elmet,53.796994,-1.249604,Diving
"Sutton Bonington, England",Sutton Bonington,52.820702,-1.251989,Equestrian
"Thurcroft, England",Thurcroft,53.391466,-1.2521199,Diving
"Kimberley, England",Kimberley,52.994062,-1.253579,Diving
"Godshill, England",Godshill,50.634742,-1.25408,Equestrian
"Watnall, England",Watnall,53.009389,-1.2555019,Diving
"Denaby Main, England",Denaby Main,53.49169,-1.2563548,Diving
"Compton, England",Compton,51.516225,-1.257138,Equestrian
"Oxford, England",Oxford,51.7520209,-1.2577263,Rowing
"Hathern, England",Hathern,52.794724,-1.260395,Diving
"Tadcaster, England",Tadcaster,53.883551,-1.260889,Diving
"Todwick, England",Todwick,53.352526,-1.261592,Equestrian
"Sutton-in-Ashfield, England",Sutton-in-Ashfield,53.126933,-1.262504,Diving
"Overton, England",Overton,51.243196,-1.26328,Equestrian
"Rugby, England",Rugby,52.370878,-1.265032,Diving
"Cold Ash, England",Cold Ash,51.424637,-1.265065,Diving
"Clowne, England",Clowne,53.27422,-1.2652699,Diving
"Thatcham, England",Thatcham,51.405805,-1.266468,Diving
"Long Eaton, England",Long Eaton,52.898446,-1.269778,Diving
"Stapleford, England",Stapleford,52.9286389,-1.272719,Diving
"Stapleford, England",Stapleford,52.9286389,-1.272719,Diving
"Middleton Cheney, England",Middleton Cheney,52.072758,-1.27394,Diving
"Hermitage, England",Hermitage,51.4520259,-1.2754,Rowing
"Wickersley, England",Wickersley,53.423049,-1.275728,Diving
"Markfield, England",Markfield,52.689224,-1.277134,Equestrian
"Hutton Rudby, England",Hutton Rudby,54.452335,-1.277503,Diving
"Sutton Courtenay, England",Sutton Courtenay,51.6408739,-1.277537,Diving
"Stoney Stanton, England",Stoney Stanton,52.546118,-1.2777289,Diving
"Trowell, England",Trowell,52.954013,-1.279967,Rowing
"Kegworth, England",Kegworth,52.836709,-1.2801849,Diving
"Awsworth, England",Awsworth,52.987111,-1.281849,Diving
"South Elmsall, England",South Elmsall,53.59673,-1.2831,Diving
"Newthorpe, England",Newthorpe,53.013284,-1.2840069,Diving
"Niton, England",Niton,50.588306,-1.284886,Rowing
"Barlborough, England",Barlborough,53.290083,-1.28749,Diving
"Abingdon, England",Abingdon,51.67078,-1.2879529,Diving
"Sandiacre, England",Sandiacre,52.926499,-1.288894,Diving
"Harwell, England",Harwell,51.601327,-1.288948,Equestrian
"Bolsover, England",Bolsover,53.231044,-1.2897209,Rowing
"Kirk Hammerton, England",Kirk Hammerton,53.9946,-1.2903,Diving
"Kidlington, England",Kidlington,51.823398,-1.290459,Diving
"Boars Hill, England",Boars Hill,51.715578,-1.29109,Diving
"Newport, England",Newport,50.700803,-1.291633,Equestrian
"Newport, England",Newport,50.700803,-1.291633,Diving
"Newport, England",Newport,50.700803,-1.291633,Diving
"Aston, England",Aston,53.3630179,-1.29214,Diving
"Shepshed, England",Shepshed,52.7701009,-1.292427,Diving
"Thornaby, England",Thornaby,54.5403076,-1.2936359,Diving
"Horton Heath, England",Horton Heath,50.954609,-1.295117,Diving
"Wales, England",Wales,53.3414328,-1.2966629,Diving
"Kings Worthy, England",Kings Worthy,51.102386,-1.297073,Equestrian
"Fair Oak, England",Fair Oak,50.965896,-1.298133,Diving
"Thrybergh, England",Thrybergh,53.451899,-1.2988729,Diving
"Cowes, England",Cowes,50.762785,-1.300533,Rowing
"Long Lawford, England",Long Lawford,52.379777,-1.304945,Diving
"Hedge End, England",Hedge End,50.911274,-1.306678,Diving
"Goldthorpe, England",Goldthorpe,53.534601,-1.307202,Diving
"Huthwaite, England",Huthwaite,53.128973,-1.3073809,Diving
"Cawston, England",Cawston,52.358053,-1.30781,Diving
"Eastwood, England",Eastwood,53.018115,-1.308544,Diving
"Winchester, England",Winchester,51.059771,-1.310142,Diving
"Yarnton, England",Yarnton,51.804213,-1.310194,Diving
"Bursledon, England",Bursledon,50.884634,-1.311695,Diving
"Brinsley, England",Brinsley,53.033855,-1.312842,Diving
"Breaston, England",Breaston,52.8977239,-1.313197,Equestrian
"Horden, England",Horden,54.7633041,-1.3135167,Diving
"Killamarsh, England",Killamarsh,53.320515,-1.313704,Diving
"Adderbury, England",Adderbury,52.017428,-1.315045,Diving
"Thurnscoe, England",Thurnscoe,53.546071,-1.315757,Diving
"Bolton upon Dearne, England",Bolton upon Dearne,53.518834,-1.316327,Diving
"Selston, England",Selston,53.070277,-1.316374,Diving
"Hamble-le-Rice, England",Hamble-le-Rice,50.8588275,-1.3201169,Diving
"Swallownest, England",Swallownest,53.3630141,-1.3211043,Diving
"South Kirkby, England",South Kirkby,53.592424,-1.322734,Diving
"Newbury, England",Newbury,51.401409,-1.3231139,Diving
"Earl Shilton, England",Earl Shilton,52.574738,-1.3231329,Equestrian
"Deddington, England",Deddington,51.9821927,-1.3233086,Rowing
"Renishaw, England",Renishaw,53.2966399,-1.326273,Diving
"Steventon, England",Steventon,51.62533,-1.328262,Equestrian
"Peterlee, England",Peterlee,54.762441,-1.32895,Rowing
"Stockton-on-Tees, England",Stockton-on-Tees,54.5704551,-1.3289821,Diving
"Cumnor, England",Cumnor,51.731378,-1.332203,Rowing
"Ackworth, England",Ackworth,53.6496166,-1.3327497,Diving
"Jacksdale, England",Jacksdale,53.059319,-1.33522,Diving
"Bagworth, England",Bagworth,52.668263,-1.335385,Diving
"Micklefield, England",Micklefield,53.8000329,-1.3355459,Diving
"Sutton Scotney, England",Sutton Scotney,51.154214,-1.335825,Diving
"Beighton, England",Beighton,53.348806,-1.337257,Diving
"Seaham, England",Seaham,54.840346,-1.337517,Diving
"Langley Mill, England",Langley Mill,53.01827,-1.338362,Diving
"Wath upon Dearne, England",Wath upon Dearne,53.5029116,-1.339493,Diving
"Banbury, England",Banbury,52.0629009,-1.339775,Equestrian
"Draycott, England",Draycott,52.894245,-1.34012,Diving
"South Normanton, England",South Normanton,53.1081689,-1.340708,Diving
"Thirsk, England",Thirsk,54.233849,-1.341377,Diving
"Castle Donington, England",Castle Donington,52.840649,-1.341575,Diving
"Rawmarsh, England",Rawmarsh,53.4616366,-1.3442806,Diving
"Parkgate, England",Parkgate,53.4496194,-1.3448797,Equestrian
"Tibshelf, England",Tibshelf,53.140349,-1.346878,Diving
"Halfway, England",Halfway,53.325829,-1.346904,Diving
"Otterbourne, England",Otterbourne,51.003742,-1.348111,Diving
"Burbage, England",Burbage,52.527666,-1.348303,Rowing
"Burbage, England",Burbage,52.527666,-1.348303,Diving
"Waterthorpe, England",Waterthorpe,53.336459,-1.34986,Diving
"Bramham, England",Bramham,53.878543,-1.3503829,Diving
"Littleton, England",Littleton,51.089066,-1.350867,Diving
"Treeton, England",Treeton,53.3864138,-1.3511502,Diving
"Hemsworth, England",Hemsworth,53.615428,-1.352693,Diving
"Whitwick, England",Whitwick,52.739801,-1.3529659,Equestrian
"Fawley, England",Fawley,50.82878,-1.353232,Rowing
"Heanor, England",Heanor,53.013807,-1.35377,Diving
"Holmewood, England",Holmewood,53.189988,-1.354538,Diving
"Boston Spa, England",Boston Spa,53.905682,-1.356251,Diving
"Featherstone, England",Featherstone,53.674814,-1.356949,Diving
"Featherstone, England",Featherstone,53.674814,-1.356949,Diving
"Blackwell, England",Blackwell,53.1200029,-1.356961,Diving
"Eckington, England",Eckington,53.30756,-1.357039,Diving
"West Hallam, England",West Hallam,52.966667,-1.357334,Diving
"Inkersall, England",Inkersall,53.2504009,-1.357699,Diving
"Mosborough, England",Mosborough,53.327433,-1.3611279,Diving
"Brinklow, England",Brinklow,52.409214,-1.363026,Diving
"Rotherham, England",Rotherham,53.4326035,-1.3635009,Diving
"Pilsley, England",Pilsley,53.155114,-1.364488,Diving
"Dalton-le-Dale, England",Dalton-le-Dale,54.826071,-1.365891,Diving
"Hugglescote, England",Hugglescote,52.713628,-1.36752,Diving
"Whitburn, England",Whitburn,54.9576,-1.368009,Diving
"Wolvey, England",Wolvey,52.486672,-1.3691739,Diving
"Barlestone, England",Barlestone,52.64729,-1.369432,Rowing
"Allerton Bywater, England",Allerton Bywater,53.744864,-1.369577,Diving
"Somercotes, England",Somercotes,53.081385,-1.370777,Diving
"Kippax, England",Kippax,53.766869,-1.370976,Diving
"Middle Barton, England",Middle Barton,51.928342,-1.371227,Equestrian
"Loscoe, England",Loscoe,53.02596,-1.371497,Diving
"Bloxham, England",Bloxham,52.020246,-1.371808,Diving
"Highclere, England",Highclere,51.340716,-1.372084,Rowing
"Eastleigh, England",Eastleigh,50.967182,-1.374688,Diving
"Brinsworth, England",Brinsworth,53.407255,-1.375539,Diving
"Hinckley, England",Hinckley,52.5454549,-1.37667,Diving
"Eynsham, England",Eynsham,51.781605,-1.376999,Diving
"Fitzwilliam, England",Fitzwilliam,53.636438,-1.377935,Diving
"Borrowash, England",Borrowash,52.905581,-1.377989,Diving
"Chandler's Ford, England",Chandler's Ford,50.983953,-1.379259,Diving
"Woolton Hill, England",Woolton Hill,51.3552449,-1.380474,Rowing
"Stanley Common, England",Stanley Common,52.975307,-1.38049,Diving
"Wingate, England",Wingate,54.735421,-1.382083,Diving
"Alfreton, England",Alfreton,53.09745,-1.382256,Diving
"Grimethorpe, England",Grimethorpe,53.575458,-1.382291,Equestrian
"Sunderland, England",Sunderland,54.906869,-1.383801,Diving
"Brampton Bierlow, England",Brampton Bierlow,53.5009334,-1.3870139,Diving
"Murton, England",Murton,54.814642,-1.38712,Diving
"North Wingfield, England",North Wingfield,53.1822159,-1.388955,Diving
"Morton, England",Morton,53.137268,-1.389222,Diving
"Morton, England",Morton,53.137268,-1.389222,Diving
"Southam, England",Southam,52.2505049,-1.389719,Diving
"Garforth, England",Garforth,53.792149,-1.389877,Diving
"Brimington, England",Brimington,53.25823,-1.391703,Diving
"Long Hanborough, England",Long Hanborough,51.821979,-1.39436,Diving
"Long Itchington, England",Long Itchington,52.28407,-1.394391,Diving
"Shotton Colliery, England",Shotton Colliery,54.760251,-1.395437,Diving
"Grassmoor, England",Grassmoor,53.2028109,-1.395691,Diving
"Barwick in Elmet, England",Barwick in Elmet,53.830287,-1.397122,Diving
"Wolston, England",Wolston,52.37404,-1.397681,Equestrian
"Swanwick, England",Swanwick,53.075394,-1.39816,Diving
"Ravenstone, England",Ravenstone,52.719948,-1.39939,Diving
"Ibstock, England",Ibstock,52.694645,-1.401395,Diving
"Southampton, England",Southampton,50.9097004,-1.4043509,Diving
"Ripley, England",Ripley,53.052819,-1.405792,Diving
"Ripley, England",Ripley,53.052819,-1.405792,Diving
"New Tupton, England",New Tupton,53.19112,-1.406299,Diving
"Hasland, England",Hasland,53.220231,-1.406527,Equestrian
"Coleorton, England",Coleorton,52.753166,-1.406571,Diving
"South Hetton, England",South Hetton,54.799637,-1.407052,Diving
"Market Bosworth, England",Market Bosworth,52.623465,-1.40784,Diving
"Shafton, England",Shafton,53.595169,-1.407907,Diving
"New Whittington, England",New Whittington,53.276406,-1.40987,Diving
"Collingham, England",Collingham,53.908313,-1.4098869,Diving
"Collingham, England",Collingham,53.908313,-1.4098869,Equestrian
"Hemingfield, England",Hemingfield,53.508403,-1.410688,Diving
"Methley, England",Methley,53.733997,-1.412573,Diving
"Clay Cross, England",Clay Cross,53.163795,-1.414784,Diving
"Cudworth, England",Cudworth,53.577872,-1.415027,Diving
"Swillington, England",Swillington,53.768464,-1.416674,Diving
"East Woodhay, England",East Woodhay,51.3502889,-1.416828,Diving
"Wheatley Hill, England",Wheatley Hill,54.749065,-1.416916,Diving
"Brompton, England",Brompton,54.361122,-1.419445,Equestrian
"Grove, England",Grove,51.6131839,-1.419502,Diving
"Binley Woods, England",Binley Woods,52.3926536,-1.4197885,Diving
"Chesterfield, England",Chesterfield,53.235048,-1.421629,Diving
"East Boldon, England",East Boldon,54.943156,-1.422718,Diving
"Thorner, England",Thorner,53.854763,-1.425035,Diving
"Tynemouth, England",Tynemouth,55.0175869,-1.4255819,Diving
"Crofton, England",Crofton,53.6568414,-1.4263727,Diving
"Wantage, England",Wantage,51.588868,-1.426453,Equestrian
"South Shields, England",South Shields,54.999424,-1.427406,Diving
"Standlake, England",Standlake,51.725308,-1.428075,Equestrian
"Melbourne, England",Melbourne,52.823808,-1.4287319,Diving
"Scholes, England",Scholes,53.824374,-1.429713,Diving
"Northallerton, England",Northallerton,54.337961,-1.429959,Diving
"Kilburn, England",Kilburn,53.007732,-1.433412,Diving
"Wingerworth, England",Wingerworth,53.20184,-1.433597,Diving
"Altofts, England",Altofts,53.7049604,-1.4344615,Diving
"Ryton-on-Dunsmore, England",Ryton-on-Dunsmore,52.366783,-1.4347129,Diving
"Bishop's Itchington, England",Bishop's Itchington,52.21526,-1.4349479,Equestrian
"Thornley, England",Thornley,54.751075,-1.436305,Diving
"Thorpe Hesley, England",Thorpe Hesley,53.460914,-1.4374309,Diving
"South Wingfield, England",South Wingfield,53.09617,-1.44045,Diving
"Hoyland, England",Hoyland,53.498492,-1.44056,Diving
"Kintbury, England",Kintbury,51.396893,-1.442128,Equestrian
"Heage, England",Heage,53.048613,-1.442742,Rowing
"North Leigh, England",North Leigh,51.813414,-1.444797,Diving
"North Shields, England",North Shields,55.010762,-1.449138,Diving
"Marchwood, England",Marchwood,50.8906599,-1.44943,Diving
"Sedgefield, England",Sedgefield,54.653152,-1.45019,Diving
"Oulton, England",Oulton,53.750088,-1.450425,Diving
"Woodlesford, England",Woodlesford,53.756411,-1.451157,Diving
"Whitley Bay, England",Whitley Bay,55.046389,-1.4512989,Diving
"Scarcroft, England",Scarcroft,53.868832,-1.454078,Diving
"Hetton-le-Hole, England",Hetton-le-Hole,54.827971,-1.454298,Diving
"Little Eaton, England",Little Eaton,52.969181,-1.46028,Diving
"Worsbrough, England",Worsbrough,53.528409,-1.461325,Diving
"Middleton Saint George, England",Middleton Saint George,54.511531,-1.464652,Diving
"Nuneaton, England",Nuneaton,52.520489,-1.465382,Diving
"Dronfield, England",Dronfield,53.302279,-1.467959,Equestrian
"Houghton le Spring, England",Houghton le Spring,54.841016,-1.468691,Diving
"Bedworth, England",Bedworth,52.481392,-1.468869,Diving
"Boldon Colliery, England",Boldon Colliery,54.950456,-1.469053,Rowing
"Sheffield, England",Sheffield,53.381129,-1.470085,Diving
"Knaresborough, England",Knaresborough,54.011022,-1.47102,Diving
"Rothwell, England",Rothwell,53.755477,-1.4734619,Diving
"Rothwell, England",Rothwell,53.755477,-1.4734619,Diving
"Seaton Sluice, England",Seaton Sluice,55.083617,-1.474412,Diving
"Derby, England",Derby,52.9225301,-1.4746186,Diving
"Belper, England",Belper,53.0243899,-1.477616,Diving
"Barnsley, England",Barnsley,53.55263,-1.479726,Diving
"Charlbury, England",Charlbury,51.8745,-1.479752,Equestrian
"Hook Norton, England",Hook Norton,51.9946709,-1.481903,Equestrian
"Jarrow, England",Jarrow,54.980297,-1.482757,Diving
"Stockbridge, England",Stockbridge,51.116603,-1.484301,Equestrian
"Tankersley, England",Tankersley,53.496416,-1.485755,Diving
"King's Somborne, England",King's Somborne,51.078178,-1.486981,Equestrian
"Duffield, England",Duffield,52.984696,-1.487313,Equestrian
"Andover, England",Andover,51.2111975,-1.4919233,Equestrian
"Radford Semele, England",Radford Semele,52.2781581,-1.4965271,Diving
"Romsey, England",Romsey,50.98893,-1.49658,Diving
"Lofthouse, England",Lofthouse,53.724989,-1.498485,Diving
"Totton, England",Totton,50.9141239,-1.4985934,Diving
"Measham, England",Measham,52.710459,-1.502566,Diving
"Stanford in the Vale, England",Stanford in the Vale,51.641581,-1.505106,Equestrian
"Wakefield, England",Wakefield,53.683298,-1.505924,Diving
"Coxhoe, England",Coxhoe,54.719249,-1.50746,Diving
"Robin Hood, England",Robin Hood,53.7411879,-1.5084751,Diving
"Shiremoor, England",Shiremoor,55.037226,-1.510266,Diving
"Blyth, England",Blyth,55.126957,-1.510277,Diving
"Blyth, England",Blyth,55.126957,-1.510277,Diving
"Kineton, England",Kineton,52.155786,-1.510704,Equestrian
"Washington, England",Washington,54.897432,-1.517366,Diving
"Hungerford, England",Hungerford,51.412345,-1.517995,Diving
"Coventry, England",Coventry,52.406822,-1.519693,Diving
"Royal Leamington Spa, England",Royal Leamington Spa,52.2851905,-1.5200789,Diving
"Hartshill, England",Hartshill,52.5383239,-1.5202429,Diving
"Hebburn, England",Hebburn,54.972283,-1.52199,Diving
"Hartshorne, England",Hartshorne,52.784198,-1.52225,Diving
"Crigglestone, England",Crigglestone,53.643997,-1.522574,Diving
"Freshwater, England",Freshwater,50.680686,-1.523164,Diving
"Durkar, England",Durkar,53.6496412,-1.5248067,Diving
"Darton, England",Darton,53.586869,-1.525187,Diving
"Hurworth-on-Tees, England",Hurworth-on-Tees,54.487064,-1.525452,Equestrian
"Ripon, England",Ripon,54.13564,-1.527334,Equestrian
"Seaton Delaval, England",Seaton Delaval,55.0711452,-1.5276765,Diving
"Bowburn, England",Bowburn,54.735811,-1.529035,Diving
"Pannal, England",Pannal,53.956844,-1.529101,Diving
"Moira, England",Moira,52.7373819,-1.531471,Cycling
"Lambourn, England",Lambourn,51.507954,-1.531531,Equestrian
"Appleby Magna, England",Appleby Magna,52.687297,-1.532488,Diving
"Loxley, England",Loxley,53.4056839,-1.5349728,Diving
"Woodville, England",Woodville,52.76785,-1.536098,Diving
"Worrall, England",Worrall,53.424294,-1.537981,Diving
"Minster Lovell, England",Minster Lovell,51.798368,-1.538407,Equestrian
"Galley Common, England",Galley Common,52.524529,-1.539233,Diving
"East Ardsley, England",East Ardsley,53.720998,-1.540537,Diving
"Harrogate, England",Harrogate,53.99212,-1.541812,Diving
"Lymington, England",Lymington,50.758531,-1.5419099,Diving
"Chipping Norton, England",Chipping Norton,51.943544,-1.542189,Equestrian
"Leeds, England",Leeds,53.8007554,-1.5490774,Diving
"Bampton, England",Bampton,51.723453,-1.549105,Diving
"Woodlands, England",Woodlands,50.902306,-1.549809,Diving
"Matlock, England",Matlock,53.137156,-1.551774,Rowing
"Horbury, England",Horbury,53.661066,-1.552155,Diving
"Ferryhill, England",Ferryhill,54.688034,-1.553164,Diving
"Seghill, England",Seghill,55.060321,-1.554178,Diving
"Swadlincote, England",Swadlincote,52.771318,-1.554997,Diving
"Chilton, England",Chilton,54.664062,-1.556089,Diving
"Darlington, England",Darlington,54.52361,-1.559458,Diving
"Willington, England",Willington,52.853367,-1.559641,Diving
"Thurgoland, England",Thurgoland,53.504733,-1.559932,Diving
"Overseal, England",Overseal,52.735499,-1.565376,Diving
"Ashington, England",Ashington,55.182978,-1.5659829,Equestrian
"Ashington, England",Ashington,55.182978,-1.5659829,Diving
"Allesley, England",Allesley,52.424481,-1.5664579,Diving
"Tingley, England",Tingley,53.729687,-1.566482,Diving
"Deepcar, England",Deepcar,53.477571,-1.566625,Equestrian
"Brize Norton, England",Brize Norton,51.767658,-1.566767,Diving
"Church Gresley, England",Church Gresley,52.763998,-1.567278,Diving
"Chester-le-Street, England",Chester-le-Street,54.859463,-1.570672,Rowing
"Wirksworth, England",Wirksworth,53.082819,-1.570677,Diving
"Cawthorne, England",Cawthorne,53.5686899,-1.571806,Diving
"Netherton, England",Netherton,53.647039,-1.57536,Diving
"Newton Aycliffe, England",Newton Aycliffe,54.615988,-1.575577,Diving
"Brockenhurst, England",Brockenhurst,50.818863,-1.575726,Equestrian
"Lyndhurst, England",Lyndhurst,50.872559,-1.5768,Diving
"Birtley, England",Birtley,54.900992,-1.577429,Diving
"Newhall, England",Newhall,52.782956,-1.57937,Diving
"Kenilworth, England",Kenilworth,52.349557,-1.58073,Equestrian
"Cramlington, England",Cramlington,55.086136,-1.5808,Diving
"Faringdon, England",Faringdon,51.658477,-1.584679,Equestrian
"Arley, England",Arley,52.5127004,-1.5848274,Equestrian
"Arley, England",Arley,52.5127004,-1.5848274,Diving
"Durham, England",Durham,54.77525,-1.584852,Rowing
"Warwick, England",Warwick,52.282316,-1.584927,Diving
"West Wellow, England",West Wellow,50.973733,-1.585232,Diving
"Amble, England",Amble,55.331461,-1.585261,Diving
"Churwell, England",Churwell,53.761215,-1.5895109,Diving
"Wellesbourne, England",Wellesbourne,52.196557,-1.589643,Equestrian
"Carterton, England",Carterton,51.759712,-1.593124,Rowing
"Bedale, England",Bedale,54.2887008,-1.5933179,Diving
"Stocksbridge, England",Stocksbridge,53.482769,-1.593719,Diving
"Darley Dale, England",Darley Dale,53.165952,-1.596115,Diving
"Shipton-under-Wychwood, England",Shipton-under-Wychwood,51.859378,-1.596189,Diving
"Middlestown, England",Middlestown,53.651027,-1.596464,Diving
"Morley, England",Morley,53.744513,-1.598045,Diving
"Bedlington, England",Bedlington,55.131664,-1.599454,Diving
"Gateshead, England",Gateshead,54.95268,-1.603411,Diving
"Sway, England",Sway,50.783928,-1.607339,Equestrian
"Bramhope, England",Bramhope,53.883033,-1.610585,Diving
"Langley Moor, England",Langley Moor,54.755962,-1.61108,Diving
"Dordon, England",Dordon,52.600407,-1.613569,Diving
"Polesworth, England",Polesworth,52.620606,-1.6155139,Diving
"Longhoughton, England",Longhoughton,55.426875,-1.616272,Equestrian
"Newcastle upon Tyne, England",Newcastle upon Tyne,54.978252,-1.61778,Diving
"Aldbourne, England",Aldbourne,51.479233,-1.62053,Diving
"Ludgershall, England",Ludgershall,51.255202,-1.621289,Equestrian
"Baslow, England",Baslow,53.251381,-1.622371,Diving
"Shipston-on-Stour, England",Shipston-on-Stour,52.0606549,-1.622814,Diving
"Hordle, England",Hordle,50.761133,-1.6235949,Equestrian
"Penistone, England",Penistone,53.526141,-1.6255329,Diving
"Sacriston, England",Sacriston,54.81649,-1.626463,Diving
"Wideopen, England",Wideopen,55.051556,-1.627601,Diving
"Dewsbury, England",Dewsbury,53.689833,-1.6296949,Diving
"Seaton Burn, England",Seaton Burn,55.059446,-1.629936,Diving
"Emley, England",Emley,53.6140789,-1.630458,Diving
"Budbrooke, England",Budbrooke,52.2834217,-1.6310811,Rowing
"Gildersome, England",Gildersome,53.759594,-1.632524,Diving
"Batley, England",Batley,53.717028,-1.635083,Diving
"Horsforth, England",Horsforth,53.842177,-1.636099,Diving
"Watchfield, England",Watchfield,51.6128337,-1.6367845,Equestrian
"Hilton, England",Hilton,52.871,-1.637,Diving
"Burton, England",Burton,52.8140281,-1.6371359,Diving
"Burton upon Trent, England",Burton upon Trent,52.8140281,-1.6371359,Diving
"Witton Gilbert, England",Witton Gilbert,54.803668,-1.642787,Diving
"Meriden, England",Meriden,52.438655,-1.647762,Diving
"Whiteparish, England",Whiteparish,51.013156,-1.647986,Rowing
"Balsall Common, England",Balsall Common,52.3917812,-1.6502433,Diving
"Skelmanthorpe, England",Skelmanthorpe,53.591923,-1.6509,Diving
"Seahouses, England",Seahouses,55.581148,-1.651159,Diving
"Rolleston-on-Dove, England",Rolleston-on-Dove,52.845734,-1.651206,Diving
"Denby Dale, England",Denby Dale,53.574585,-1.6529609,Equestrian
"Masham, England",Masham,54.22334,-1.655749,Equestrian
"Shrivenham, England",Shrivenham,51.600693,-1.656749,Diving
"Ushaw Moor, England",Ushaw Moor,54.778498,-1.658276,Diving
"Drighlington, England",Drighlington,53.757707,-1.661786,Diving
"Pudsey, England",Pudsey,53.797,-1.663,Diving
"Barton on Sea, England",Barton on Sea,50.7365929,-1.6632839,Diving
"Shipton Bellinger, England",Shipton Bellinger,51.210545,-1.663953,Diving
"Brompton on Swale, England",Brompton on Swale,54.392538,-1.6640417,Equestrian
"Wilnecote, England",Wilnecote,52.6085546,-1.667122,Diving
"Langley Park, England",Langley Park,54.799723,-1.669523,Diving
"Heckmondwike, England",Heckmondwike,53.706976,-1.670679,Diving
"Whickham, England",Whickham,54.944116,-1.674552,Diving
"Bakewell, England",Bakewell,53.215207,-1.676171,Equestrian
"Bishop Auckland, England",Bishop Auckland,54.663822,-1.678788,Diving
"Hatton, England",Hatton,52.864521,-1.680456,Diving
"Shelley, England",Shelley,53.595237,-1.682433,Equestrian
"Gomersal, England",Gomersal,53.729406,-1.682883,Diving
"Kingsbury, England",Kingsbury,52.56582,-1.683508,Diving
"Rawdon, England",Rawdon,53.851907,-1.684089,Diving
"Yeadon, England",Yeadon,53.865153,-1.684203,Diving
"Calverley, England",Calverley,53.829915,-1.684897,Diving
"Birkenshaw, England",Birkenshaw,53.755749,-1.690844,Diving
"Tamworth, England",Tamworth,52.633584,-1.691032,Equestrian
"Rowington, England",Rowington,52.3199915,-1.6914723,Diving
"Shilbottle, England",Shilbottle,55.372117,-1.691491,Equestrian
"Otley, England",Otley,53.905825,-1.691786,Diving
"Lechlade-on-Thames, England",Lechlade-on-Thames,51.692119,-1.692092,Equestrian
"Lepton, England",Lepton,53.632565,-1.692976,Diving
"Mirfield, England",Mirfield,53.680122,-1.696713,Diving
"Liversedge, England",Liversedge,53.709984,-1.697018,Diving
"Stanley, England",Stanley,54.868948,-1.698841,Diving
"Stanley, England",Stanley,54.868948,-1.698841,Diving
"Fazeley, England",Fazeley,52.615283,-1.699152,Diving
"Wanborough, England",Wanborough,51.54451,-1.699655,Equestrian
"Kirkburton, England",Kirkburton,53.608535,-1.701087,Diving
"Hampton in Arden, England",Hampton in Arden,52.4253659,-1.70165,Diving
"Burley, England",Burley,50.82642,-1.701727,Equestrian
"Esh Winning, England",Esh Winning,54.77079,-1.703089,Rowing
"Shepley, England",Shepley,53.58442,-1.704896,Diving
"Alnwick, England",Alnwick,55.412744,-1.706299,Diving
"Guiseley, England",Guiseley,53.877118,-1.706645,Diving
"Stratford-upon-Avon, England",Stratford-upon-Avon,52.19173,-1.708298,Diving
"Highworth, England",Highworth,51.632861,-1.710398,Rowing
"Tanfield Lea, England",Tanfield Lea,54.8804443,-1.7113301,Diving
"Saint Helen Auckland, England",Saint Helen Auckland,54.634835,-1.712341,Rowing
"Fenay Bridge, England",Fenay Bridge,53.634873,-1.715826,Diving
"Esholt, England",Esholt,53.8584922,-1.7245383,Diving
"West Auckland, England",West Auckland,54.631243,-1.724749,Diving
"Stow-on-the-Wold, England",Stow-on-the-Wold,51.931364,-1.726444,Equestrian
"Marlborough, England",Marlborough,51.420073,-1.727062,Equestrian
"Mile Oak, England",Mile Oak,52.6182896,-1.7278645,Diving
"Knowle, England",Knowle,52.386387,-1.732061,Diving
"Ashbourne, England",Ashbourne,53.016626,-1.732179,Diving
"Chiseldon, England",Chiseldon,51.513001,-1.732646,Equestrian
"Bransgore, England",Bransgore,50.780503,-1.733951,Diving
"Burnopfield, England",Burnopfield,54.907547,-1.735527,Diving
"Annfield Plain, England",Annfield Plain,54.857,-1.737,Diving
"Menston, England",Menston,53.889701,-1.737277,Cycling
"Ponteland, England",Ponteland,55.049871,-1.739844,Diving
"Lanchester, England",Lanchester,54.82232,-1.740305,Equestrian
"Bradwell, England",Bradwell,53.3251289,-1.74031,Rowing
"Bradwell, England",Bradwell,53.3251289,-1.74031,Equestrian
"Water Orton, England",Water Orton,52.517221,-1.741686,Diving
"Crook, England",Crook,54.715131,-1.743545,Diving
"Marston Green, England",Marston Green,52.466561,-1.744538,Diving
"Burley in Wharfedale, England",Burley in Wharfedale,53.913176,-1.748235,Diving
"Downton, England",Downton,50.994428,-1.751388,Rowing
"Downton, England",Downton,50.994428,-1.751388,Equestrian
"Howden-le-Wear, England",Howden-le-Wear,54.695945,-1.751564,Diving
"Pateley Bridge, England",Pateley Bridge,54.08502,-1.75522,Diving
"Bulford, England",Bulford,51.190413,-1.756999,Diving
"New Mill, England",New Mill,53.57883,-1.757677,Diving
"Low Moor, England",Low Moor,53.753942,-1.757768,Diving
"Dipton, England",Dipton,54.878303,-1.758425,Diving
"Bradford, England",Bradford,53.795984,-1.759398,Diving
"Whittington, England",Whittington,52.672444,-1.759454,Diving
"Bockhampton, England",Bockhampton,50.7708935,-1.7598237,Diving
"Dorridge, England",Dorridge,52.370734,-1.761667,Diving
"Amesbury, England",Amesbury,51.1679201,-1.7629783,Rowing
"Blockley, England",Blockley,52.014696,-1.763129,Rowing
"Bourton-on-the-Water, England",Bourton-on-the-Water,51.886805,-1.763191,Equestrian
"Wilmcote, England",Wilmcote,52.220641,-1.763971,Equestrian
"Pewsey, England",Pewsey,51.339277,-1.76478,Diving
"Mickleton, England",Mickleton,52.092843,-1.766436,Rowing
"Wyke, England",Wyke,53.737715,-1.766624,Diving
"Laverstock, England",Laverstock,51.076507,-1.770709,Diving
"Durrington, England",Durrington,51.1993,-1.770831,Diving
"Thongsbridge, England",Thongsbridge,53.585198,-1.773615,Rowing
"Tideswell, England",Tideswell,53.276798,-1.77589,Diving
"Shipley, England",Shipley,53.835927,-1.776978,Diving
"Solihull, England",Solihull,52.411811,-1.77761,Diving
"Christchurch, England",Christchurch,50.735777,-1.778586,Equestrian
"Swindon, England",Swindon,51.5557739,-1.7797176,Diving
"Swindon, England",Swindon,51.5557739,-1.7797176,Diving
"Swindon Village, England",Swindon Village,51.5557739,-1.7797176,Diving
"Hockley Heath, England",Hockley Heath,52.353533,-1.779911,Diving
"Chipping Campden, England",Chipping Campden,52.049655,-1.7832211,Equestrian
"Peterhead, Scotland",Peterhead,57.508123,-1.784066,Diving
"High Spen, England",High Spen,54.935603,-1.785031,Rowing
"Huddersfield, England",Huddersfield,53.645792,-1.785035,Diving
"Welford-on-Avon, England",Welford-on-Avon,52.165993,-1.785768,Equestrian
"Netheravon, England",Netheravon,51.240295,-1.785885,Diving
"Wroughton, England",Wroughton,51.524125,-1.787932,Diving
